[
    {
        "cinemas": [
            {
                "area_id": 15,
                "id": 26,
                "info": {
                    "address": "Roma Norte, Cuauht\u00e9moc Ciudad de M\u00e9xico, Distrito Federal",
                    "phone": "5257-6969"
                },
                "lat": 19.425274833333,
                "lng": -99.154358,
                "name": "Cinemex Centro Telmex",
                "platinum": false,
                "state_id": 8
            },
            {
                "area_id": 15,
                "id": 27,
                "info": {
                    "address": "PABELL\u00d3N CUAUHT\u00c9MOC, ANTONIO M. ANZA NO. 20 ESQ. CUAUHT\u00c9MOC, COL. ROMA, C.P. 06720",
                    "phone": "52576969"
                },
                "lat": 19.411377777778,
                "lng": -99.155441666667,
                "name": "Cinemex Cuauhtemoc",
                "platinum": false,
                "state_id": 8
            },
            {
                "area_id": 15,
                "id": 28,
                "info": {
                    "address": "Felix Cuevas No.374 Colonia del Valle Benito Ju\u00e1r",
                    "phone": "53 35 03 83"
                },
                "lat": 19.372613,
                "lng": -99.167401444444,
                "name": "Cinemex F\u00e9lix Cuevas Platino",
                "platinum": true,
                "state_id": 8
            },
            {
                "area_id": 15,
                "id": 29,
                "info": {
                    "address": "C.C. GALERIAS, CALZ. MELCHOR OCAMPO, ESQ. BAHIA ASCENCION,COL. ANZURES, MEXICO, D.F., C.P. 11300",
                    "phone": "52576969"
                },
                "lat": 19.435569444444,
                "lng": -99.171408333333,
                "name": "Cinemex Galer\u00edas",
                "platinum": false,
                "state_id": 8
            },
            {
                "area_id": 15,
                "id": 30,
                "info": {
                    "address": "INSURGENTES ESQ. SAN LUIS POTOS\u00cd SIN NUM. ATR\u00c1S DE SEARS INSURGENTES COL. ROMA, M\u00c9XICO, D. F. C.P. 06700",
                    "phone": "52576969"
                },
                "lat": 19.412519444444,
                "lng": -99.165127777778,
                "name": "Cinemex Insurgentes",
                "platinum": false,
                "state_id": 8
            },
            {
                "area_id": 15,
                "id": 31,
                "info": {
                    "address": "ITURBIDE NO. 21, COL. CENTRO, ENTRE AV. JUAREZ Y ARTICULO 123, MEXICO, D.F., C.P. 06440",
                    "phone": "52576969"
                },
                "lat": 19.433986111111,
                "lng": -99.149488888889,
                "name": "Cinemex Palacio Chino",
                "platinum": false,
                "state_id": 8
            },
            {
                "area_id": 15,
                "id": 32,
                "info": {
                    "address": "Av. Cuauhtemoc #462 Col. Narvarte CP 03020 Mexico D.F.",
                    "phone": "52576969"
                },
                "lat": 19.402591666667,
                "lng": -99.153613888889,
                "name": "Cinemex Parque Delta",
                "platinum": false,
                "state_id": 8
            },
            {
                "area_id": 15,
                "id": 33,
                "info": {
                    "address": "Av Patriotismo 229 Col San Pedro De Los Pinos Mexico D.F. CP 03800",
                    "phone": "52576969"
                },
                "lat": 19.396069444444,
                "lng": -99.180575,
                "name": "Cinemex Patriotismo",
                "platinum": false,
                "state_id": 8
            },
            {
                "area_id": 15,
                "id": 34,
                "info": {
                    "address": "\nCOLON 17 ESQ. BALDERAS Y REFORMA,\nCOL. CENTRO, DEL. CUAUHTEMOC,\nM\u00c9XICO, D. F., C.P. 06440",
                    "phone": "52576969"
                },
                "lat": 19.436377777778,
                "lng": -99.147336111111,
                "name": "Cinemex Real",
                "platinum": false,
                "state_id": 8
            },
            {
                "area_id": 15,
                "id": 35,
                "info": {
                    "address": "R\u00edo Guadalquivir 104 Cuauht\u00e9moc, 06500 Distrito Federal, M\u00e9xico",
                    "phone": "5257-6969"
                },
                "lat": 19.427258,
                "lng": -99.169571,
                "name": "Cinemex Reforma",
                "platinum": false,
                "state_id": 8
            },
            {
                "area_id": 15,
                "id": 36,
                "info": {
                    "address": "\nCALLE 10 NO. 132\nCOL. SAN PEDRO DE LOS PINOS\nALVARO OBREGON, M\u00c9XICO, D. F.\nC.P. 01180",
                    "phone": "52576969"
                },
                "lat": 19.389030555556,
                "lng": -99.191805555556,
                "name": "Cinemex San Antonio",
                "platinum": false,
                "state_id": 8
            },
            {
                "area_id": 15,
                "id": 37,
                "info": {
                    "address": "WORLD TRADE CENTER C.C. WORLD TRADE CENTERMONTECITO NO. 38COL. N\u00c1POLESM\u00c9XICO, D. F. C.P. 03810",
                    "phone": "52576969"
                },
                "lat": 19.394144444444,
                "lng": -99.172969444444,
                "name": "Cinemex Wtc",
                "platinum": false,
                "state_id": 8
            },
            {
                "area_id": 15,
                "id": 38,
                "info": {
                    "address": "WORLD TRADE CENTER C.C. WORLD TRADE CENTERMONTECITO NO. 38COL. N\u00c1POLESM\u00c9XICO, D. F. C.P. 03810",
                    "phone": "52576969"
                },
                "lat": 19.394144444444,
                "lng": -99.172969444444,
                "name": "Cinemex Wtc Platino",
                "platinum": true,
                "state_id": 8
            }
        ],
        "id": 15,
        "name": "Centro",
        "state_id": 8
    },
    {
        "cinemas": [
            {
                "area_id": 16,
                "id": 39,
                "info": {
                    "address": "Calle Primero de Mayo, Esquina Avenida Central, Las Am\u00e9ricas, Secci\u00f3n II, Municipio de Ecatepec CP. 55070",
                    "phone": "5257-6969"
                },
                "lat": 19.580290833333,
                "lng": -99.020076,
                "name": "Cinemex Am\u00e9ricas II",
                "platinum": false,
                "state_id": 8
            },
            {
                "area_id": 16,
                "id": 40,
                "info": {
                    "address": "SAN JUAN DE ARAGON 516\nCOL. DM NACIONAL\nGUSTAVO A. MADERO\nC.P. 07070",
                    "phone": "52576969"
                },
                "lat": 19.481019444444,
                "lng": -99.095497222222,
                "name": "Cinemex Arag\u00f3n",
                "platinum": false,
                "state_id": 8
            },
            {
                "area_id": 16,
                "id": 41,
                "info": {
                    "address": "Av. Central Manzana 632 # exterior 50, Col. Cd. Azteca, C.P. 55120, Ecatepec de Morelos, Edo. M\u00e9xico  ",
                    "phone": "5257-6969"
                },
                "lat": 19.533866666667,
                "lng": -99.027538888889,
                "name": "Cinemex Cd Azteca",
                "platinum": false,
                "state_id": 8
            },
            {
                "area_id": 16,
                "id": 42,
                "info": {
                    "address": "VIA MORELOS NO. 300,\nCOL. TULPETLAC,\nESTADO DE MEXICO,\n C.P. 55400 ",
                    "phone": "52576969"
                },
                "lat": 19.557813888889,
                "lng": -99.047580555556,
                "name": "Cinemex Ecatepec",
                "platinum": false,
                "state_id": 8
            },
            {
                "area_id": 16,
                "id": 43,
                "info": {
                    "address": "PALOMAS \nAV. CENTRAL SIN N\u00daMERO ESQ. AV. PALOMAS,\nCOL. PALOMAS, ECATEPEC, ESTADO DE M\u00c9XICO",
                    "phone": "01800-7108888"
                },
                "lat": 19.604277777778,
                "lng": -99.011747222222,
                "name": "Cinemex Palomas",
                "platinum": false,
                "state_id": 8
            },
            {
                "area_id": 16,
                "id": 44,
                "info": {
                    "address": "LOTE 1 MZA. 1 SECC. 1 CARR. FEDERAL LECHER\u00cdA-TEXCOCO Y AUTOPISTA MEX PACHUCA S-N EJIDO TECAMAC",
                    "phone": "01800-7108888"
                },
                "lat": 19.618349833333,
                "lng": -99.037738,
                "name": "Cinemex Tecamac",
                "platinum": false,
                "state_id": 8
            }
        ],
        "id": 16,
        "name": "Nor-oriente",
        "state_id": 8
    },
    {
        "cinemas": [
            {
                "area_id": 17,
                "id": 45,
                "info": {
                    "address": "\nAV. CONSTITUYENTE JOSE LOPEZ BONAGA\nCOL. GUADALUPE VICTORIA\nECATEPEC, ESTADO DE M\u00c9XICO\nC.P. 55010",
                    "phone": "01800-7108888"
                },
                "lat": 19.627069444444,
                "lng": -99.078252777778,
                "name": "Cinemex Coacalco",
                "platinum": false,
                "state_id": 8
            },
            {
                "area_id": 17,
                "id": 46,
                "info": {
                    "address": "VIA JORGE JIMENEZ CANTU LOMAS DE VALLE ESCONDIDO ATIZAPAN DE",
                    "phone": "01800-7108888"
                },
                "lat": 19.557936111111,
                "lng": -99.297088888889,
                "name": "Cinemex Esmeralda Platino",
                "platinum": true,
                "state_id": 8
            },
            {
                "area_id": 17,
                "id": 47,
                "info": {
                    "address": "AV. CHALMA ESQ. AUTOPISTA MEXICO - QRO. SIN N\u00daMERO COL. JARDINES DE LA HACIENDA SUR CP. 54720",
                    "phone": "52576969"
                },
                "lat": 19.671727777778,
                "lng": -99.203119444444,
                "name": "Cinemex Izcalli",
                "platinum": false,
                "state_id": 8
            },
            {
                "area_id": 17,
                "id": 48,
                "info": {
                    "address": "AV. CHALMA ESQ. AUTOPISTA MEXICO - QRO. SIN N\u00daMERO COL. JARDINES DE LA HACIENDA SUR CP. 54720",
                    "phone": "52576969"
                },
                "lat": 19.671727777778,
                "lng": -99.203119444444,
                "name": "Cinemex Izcalli Platino",
                "platinum": true,
                "state_id": 8
            },
            {
                "area_id": 17,
                "id": 49,
                "info": {
                    "address": "Paseo de La Joya Sur El Terremoto, 54800 Cuautitl\u00e1n, MEX",
                    "phone": "5257-6969"
                },
                "lat": 19.671878,
                "lng": -99.166117,
                "name": "Cinemex La Joya",
                "platinum": false,
                "state_id": 8
            },
            {
                "area_id": 17,
                "id": 50,
                "info": {
                    "address": "Av. Prol. Morelos SN Esq. Av. Ferrocarril, Col. Santa Mar\u00eda, Cuautitl\u00e1n Estado de M\u00e9xico",
                    "phone": "5257-6969"
                },
                "lat": 19.671504,
                "lng": -99.166439,
                "name": "Cinemex La V\u00eda",
                "platinum": false,
                "state_id": 8
            },
            {
                "area_id": 17,
                "id": 51,
                "info": {
                    "address": "AV. R\u00cdO CONSULADO NO. 1688\nESQ. AV. LOS MISTERIOS, COL. VALLEJO,\nM\u00c9XICO, D. F., C. P. 07870",
                    "phone": "52576969"
                },
                "lat": 19.462013888889,
                "lng": -99.126711111111,
                "name": "Cinemex Misterios",
                "platinum": false,
                "state_id": 8
            },
            {
                "area_id": 17,
                "id": 52,
                "info": {
                    "address": "BLVD. MANUEL AVILA CAMACHO NO. 1007,COL. SAN LUCAS TEPETLACALCO,TLANEPANTLA, EDO. DE MEXICO",
                    "phone": "01800-7108888"
                },
                "lat": 19.525047222222,
                "lng": -99.228002777778,
                "name": "Cinemex Mundo E",
                "platinum": false,
                "state_id": 8
            },
            {
                "area_id": 17,
                "id": 53,
                "info": {
                    "address": "BLVD. MANUEL AVILA CAMACHO NO. 1007,  COL. SAN LUCAS TEPETLACALCO,  TLANEPANTLA, EDO. DE MEXICO",
                    "phone": "01800-7108888"
                },
                "lat": 19.525047222222,
                "lng": -99.228002777778,
                "name": "Cinemex Mundo E Platino",
                "platinum": true,
                "state_id": 8
            },
            {
                "area_id": 17,
                "id": 54,
                "info": {
                    "address": "AVENIDA SANTA CRUZ OJO DE AGUA TECAMAC MEXICO",
                    "phone": "01800-7108888"
                },
                "lat": 19.665997222222,
                "lng": -99.017644444444,
                "name": "Cinemex Ojo De Agua",
                "platinum": false,
                "state_id": 8
            },
            {
                "area_id": 17,
                "id": 55,
                "info": {
                    "address": "Jos\u00e9 L\u00f3pez Portillo Buenavista, MEX",
                    "phone": "5257-6969"
                },
                "lat": 19.646528,
                "lng": -99.087474,
                "name": "Cinemex Pb Coacalco",
                "platinum": false,
                "state_id": 8
            },
            {
                "area_id": 17,
                "id": 56,
                "info": {
                    "address": "HOTEL FIESTA INN PERINORTE,\nAUTOPISTA MEXICO-QUERETARO KM. 32.5,\nMUNICIPIO DE TULTITLAN,\nESTADO DE MEXICO, C.P. 55400",
                    "phone": "01800-7108888"
                },
                "lat": 19.608111111111,
                "lng": -99.188491666667,
                "name": "Cinemex Perinorte",
                "platinum": false,
                "state_id": 8
            },
            {
                "area_id": 17,
                "id": 57,
                "info": {
                    "address": "Texcoco 56335 Chimalhuac\u00e1n, MEX",
                    "phone": "5257-6969"
                },
                "lat": 19.427926,
                "lng": -98.911715,
                "name": "Cinemex Puerta Texcoco",
                "platinum": false,
                "state_id": 8
            },
            {
                "area_id": 17,
                "id": 58,
                "info": {
                    "address": "AV. CULTURA NORTE NO. 901 COLONIA EL ROSARIO DELEG",
                    "phone": "01800-7108888"
                },
                "lat": 19.50454166667,
                "lng": -99.200019444444,
                "name": "Cinemex Rosario",
                "platinum": false,
                "state_id": 8
            },
            {
                "area_id": 17,
                "id": 59,
                "info": {
                    "address": "AV. JARDINES DE SAN MATEO. ADOLFO L\u00d3PEZ MATEOS COL. LOS ALCANFORES",
                    "phone": "52576969"
                },
                "lat": 19.484430555556,
                "lng": -99.249969444444,
                "name": "Cinemex San Mateo",
                "platinum": false,
                "state_id": 8
            },
            {
                "area_id": 17,
                "id": 60,
                "info": {
                    "address": "AV. DE LA VENTISCA NO. 100 COL SOLIDARIDAD NACIONAL ANTES ACUEDUCTO ",
                    "phone": "52576969"
                },
                "lat": 19.529863888889,
                "lng": -99.156055555556,
                "name": "Cinemex Tenayuca",
                "platinum": false,
                "state_id": 8
            },
            {
                "area_id": 17,
                "id": 61,
                "info": {
                    "address": "Francisco Javier Mina Zaragoza, Texcoco de Mora, Estado de M\u00e9xico",
                    "phone": "5257-6969"
                },
                "lat": 19.518173,
                "lng": -98.880816,
                "name": "Cinemex Texcoco",
                "platinum": false,
                "state_id": 8
            },
            {
                "area_id": 17,
                "id": 62,
                "info": {
                    "address": "AV. PROLONGACI\u00d3N ESCUADR\u00d3N 201 NO. 200,\nCOL. TICOM\u00c1N,\nM\u00c9XICO, D.F., C.P. 55400",
                    "phone": "52576969"
                },
                "lat": 19.516663888889,
                "lng": -99.141936111111,
                "name": "Cinemex Ticoman",
                "platinum": false,
                "state_id": 8
            },
            {
                "area_id": 17,
                "id": 63,
                "info": {
                    "address": "VIA MEXIQUENSE SN LOTE 4 COLONIA EX HACIENDA PORT",
                    "phone": "01800-7108888"
                },
                "lat": 19.641537,
                "lng": -99.141269,
                "name": "Cinemex Tultitlan",
                "platinum": false,
                "state_id": 8
            },
            {
                "area_id": 17,
                "id": 64,
                "info": {
                    "address": "AUT MEXICO QUERETARO FRACC INDUSTRIAL TLAXCOLPAN TLALNEPANTLA",
                    "phone": "01800-7108888"
                },
                "lat": 19.547486111111,
                "lng": -99.210925,
                "name": "Cinemex Valle Dorado",
                "platinum": false,
                "state_id": 8
            },
            {
                "area_id": 17,
                "id": 65,
                "info": {
                    "address": "VIA JORGE JIMENEZ CANTU LOMAS DE VALLE ESCONDIDO ATIZAPAN DE",
                    "phone": "01800-7108888"
                },
                "lat": 19.557936111111,
                "lng": -99.297088888889,
                "name": "Cinemex Zona Esmeralda",
                "platinum": false,
                "state_id": 8
            }
        ],
        "id": 17,
        "name": "Norte",
        "state_id": 8
    },
    {
        "cinemas": [
            {
                "area_id": 18,
                "id": 66,
                "info": {
                    "address": "Plaza Chalco 56600 Chalco de D\u00edaz Covarrubias, MEX, M\u00e9xico",
                    "phone": "5257-6969"
                },
                "lat": 19.264155833333,
                "lng": -98.895621,
                "name": "Cinemex Chalco",
                "platinum": false,
                "state_id": 8
            },
            {
                "area_id": 18,
                "id": 67,
                "info": {
                    "address": "AV. DEL PE\u00d1ON SIN N\u00daMERO TERRENO DENOMINAD EMBARCADERO VIEJO, COL. BARRIO DE XOCHITENCO, C.P. 56334, CHIMALHUAC\u00c1N ESTADO DE MEXICO",
                    "phone": "01800-7108888"
                },
                "lat": 19.421572,
                "lng": -98.971922,
                "name": "Cinemex Chimalhuac\u00e1n",
                "platinum": false,
                "state_id": 8
            },
            {
                "area_id": 18,
                "id": 68,
                "info": {
                    "address": "Carretera Federal M\u00e9xico Cuautla km 37 Col. Hacienda Santa Barbara Municipio de Ixtapaluca Estado de M\u00e9xico.",
                    "phone": "5257-6969"
                },
                "lat": 19.31491,
                "lng": -98.882875,
                "name": "Cinemex Cortijo",
                "platinum": false,
                "state_id": 8
            },
            {
                "area_id": 18,
                "id": 69,
                "info": {
                    "address": "Carr.Libre Mexico-Puebla Terre El Vigilante # 3,4,5  CP 56563 Ixtapaluca Edo. de Mexico",
                    "phone": "52576969"
                },
                "lat": 19.312580555556,
                "lng": -98.888877777778,
                "name": "Cinemex Ixtapaluca",
                "platinum": false,
                "state_id": 8
            },
            {
                "area_id": 18,
                "id": 70,
                "info": {
                    "address": "IZTAPALAPA \nPERIFERICO ARCO ORIENTE NO. 2141\nCOL. EJERCITO CONSTITUCIONALISTA\nM\u00c9XICO, D. F., C.P. 09220",
                    "phone": "52576969"
                },
                "lat": 19.380230555556,
                "lng": -99.059258333333,
                "name": "Cinemex Iztapalapa",
                "platinum": false,
                "state_id": 8
            },
            {
                "area_id": 18,
                "id": 71,
                "info": {
                    "address": "CALZ. LA VIGA No. 1150 COL APATLACO DEL IZTAPALAPA C.P. 05349",
                    "phone": "52576969"
                },
                "lat": 19.380463,
                "lng": -99.122215,
                "name": "Cinemex La Viga",
                "platinum": false,
                "state_id": 8
            },
            {
                "area_id": 18,
                "id": 72,
                "info": {
                    "address": "KM. 17.5 CARRETERA LIBRE MEXICO-PUEBLA,\nMUNICIPIO DE LOS REYES, LA PAZ,\nESTADO DE MEXICO,\nC.P. 56400",
                    "phone": "52576969"
                },
                "lat": 19.355111111111,
                "lng": -98.982716666667,
                "name": "Cinemex Los Reyes",
                "platinum": false,
                "state_id": 8
            },
            {
                "area_id": 18,
                "id": 73,
                "info": {
                    "address": "Boulevard Arturo Montiel Rojas #3, Barrio la Conchita, C.P. 56600, Municipio de Chalco, Edo. De M\u00e9xico",
                    "phone": "5257-6969"
                },
                "lat": 19.251123,
                "lng": -98.899414,
                "name": "Cinemex Paseo Chalco",
                "platinum": false,
                "state_id": 8
            },
            {
                "area_id": 18,
                "id": 74,
                "info": {
                    "address": "ZARAGOZA \nCALZ. IGNACIO ZARAGOZA NO. 2221\nCOL. EL PARA\u00cdSO, IZTAPALAPA\nM\u00c9XICO, D.F., C.P. 09230",
                    "phone": "52576969"
                },
                "lat": 19.380547222222,
                "lng": -99.028916666667,
                "name": "Cinemex Zaragoza",
                "platinum": false,
                "state_id": 8
            },
            {
                "area_id": 18,
                "id": 226,
                "info": {
                    "address": "AVENIDA CANAL DEL TEZONTLE No. 1520 COLONIA DR. AL",
                    "phone": {}
                },
                "lat": 19.3833,
                "lng": -99.080182,
                "name": "Plaza Oriente",
                "platinum": false,
                "state_id": 8
            }
        ],
        "id": 18,
        "name": "Oriente",
        "state_id": 8
    },
    {
        "cinemas": [
            {
                "area_id": 19,
                "id": 75,
                "info": {
                    "address": "Av. Ejercito nacional 843-bAv. Col. Granada, Del. Miguel hidalgo",
                    "phone": "52576969"
                },
                "lat": 19.439319444444,
                "lng": -99.203788888889,
                "name": "Cinemex Antara",
                "platinum": false,
                "state_id": 8
            },
            {
                "area_id": 19,
                "id": 76,
                "info": {
                    "address": "Av. Ejercito nacional 843-bAv. Col. Granada, Del. Miguel hidalgo",
                    "phone": "52576969"
                },
                "lat": 19.439319444444,
                "lng": -99.203788888889,
                "name": "Cinemex Antara Platino",
                "platinum": true,
                "state_id": 8
            },
            {
                "area_id": 19,
                "id": 77,
                "info": {
                    "address": "Av. Magnocentro 26 Col. Centro Urbano C.P. 52780 Huixquilucan Edo de Mex",
                    "phone": "52576969"
                },
                "lat": 19.406886111111,
                "lng": -99.271977777778,
                "name": "Cinemex Interlomas",
                "platinum": false,
                "state_id": 8
            },
            {
                "area_id": 19,
                "id": 78,
                "info": {
                    "address": {},
                    "phone": "5257-6969"
                },
                "lat": 19.406659,
                "lng": -99.272606,
                "name": "Cinemex Interlomas Platino",
                "platinum": true,
                "state_id": 8
            },
            {
                "area_id": 19,
                "id": 79,
                "info": {
                    "address": "CALZADA LEGARIA 252\nCOL. PENSIL NORTE\nM\u00c9XICO, D.F., C.P. ",
                    "phone": "52576969"
                },
                "lat": 19.453177777778,
                "lng": -99.19715,
                "name": "Cinemex Legaria",
                "platinum": false,
                "state_id": 8
            },
            {
                "area_id": 19,
                "id": 80,
                "info": {
                    "address": "PABELL\u00d3N POLANCO, AV. EJERCITO NACIONAL NO. 980, COL. CHAPULTEPEC MORALES, MEXICO, D.F., C.P. 11510",
                    "phone": "52576969"
                },
                "lat": 19.437830555556,
                "lng": -99.207222222222,
                "name": "Cinemex Pabell\u00f3n Polanco",
                "platinum": false,
                "state_id": 8
            },
            {
                "area_id": 19,
                "id": 81,
                "info": {
                    "address": "PABELL\u00d3N POLANCO, AV. EJERCITO NACIONAL NO. 980, COL. CHAPULTEPEC MORALES, MEXICO, D.F., C.P. 11510",
                    "phone": "52576969"
                },
                "lat": 19.437830555556,
                "lng": -99.207222222222,
                "name": "Cinemex Pabell\u00f3n Polanco Platino",
                "platinum": true,
                "state_id": 8
            },
            {
                "area_id": 19,
                "id": 82,
                "info": {
                    "address": "Javier Barros Sierra #540, Santa F\u00e9, CP 01210, Cuajimalpa, M\u00e9xico D.F.",
                    "phone": "52576969"
                },
                "lat": 19.366022833333,
                "lng": -99.257918,
                "name": "Cinemex Park Plaza Santa Fe Platino",
                "platinum": true,
                "state_id": 8
            },
            {
                "area_id": 19,
                "id": 83,
                "info": {
                    "address": "Calzada San Esteban No. 46 San Esteban Huitzilacasco Naucalpan, Edo. Mex. Cp 53550",
                    "phone": "01800-7108888"
                },
                "lat": 19.458758,
                "lng": -99.235066,
                "name": "Cinemex San Esteban",
                "platinum": false,
                "state_id": 8
            },
            {
                "area_id": 19,
                "id": 84,
                "info": {
                    "address": "Av. Vasco de Quiroga 3800, Col. Antigua mina la Totoloapan, C.P. 05109, Del. Cuajimalpa, Ciudad de M\u00e9xico, M\u00e9xico D.F.",
                    "phone": "5257-6969"
                },
                "lat": 19.359975,
                "lng": -99.274391666667,
                "name": "Cinemex Santa Fe",
                "platinum": false,
                "state_id": 8
            },
            {
                "area_id": 19,
                "id": 85,
                "info": {
                    "address": "Av. Vasco de Quiroga 3800, Col. Antigua mina la Totoloapan, C.P. 05109, Del. Cuajimalpa, Ciudad de M\u00e9xico, M\u00e9xico D.F.",
                    "phone": "52592740"
                },
                "lat": 19.359975,
                "lng": -99.274391666667,
                "name": "Cinemex Santa Fe Platino",
                "platinum": true,
                "state_id": 8
            },
            {
                "area_id": 19,
                "id": 224,
                "info": {
                    "address": "Boulevard Miguel de Cervantes Saavedra 397, Col Irrigaci\u00f3n, C.P. 11500, M\u00e9xico D.F.",
                    "phone": "5257-6969"
                },
                "lat": 19.440533,
                "lng": -99.207466,
                "name": "Polanco II",
                "platinum": false,
                "state_id": 8
            }
        ],
        "id": 19,
        "name": "Poniente",
        "state_id": 8
    },
    {
        "cinemas": [
            {
                "area_id": 20,
                "id": 86,
                "info": {
                    "address": "C.C. PABELLON ALTAVISTA,CALZ. DESIERTO DE LOS LEONES NO. 52,COL. SAN ANGEL,MEXICO, D.F., C.P. 01000",
                    "phone": "52576969"
                },
                "lat": 19.3487,
                "lng": -99.189183333333,
                "name": "Cinemex Altavista",
                "platinum": false,
                "state_id": 8
            },
            {
                "area_id": 20,
                "id": 87,
                "info": {
                    "address": "C. C. GALERIAS COAPACALZ. DEL HUESO NO. 519,COL. RESIDENCIAL ACOXPA,M\u00c9XICO, D. F., C. P. 14300",
                    "phone": "52576969"
                },
                "lat": 19.302927777778,
                "lng": -99.124633333333,
                "name": "Cinemex Coapa",
                "platinum": false,
                "state_id": 8
            },
            {
                "area_id": 20,
                "id": 88,
                "info": {
                    "address": "CANAL DE MIRAMONTES #3122, COL EX HACIENDA DE COAPA, C.P. 14300, M\u00c9XICO D.F.",
                    "phone": "5627-8201"
                },
                "lat": 19.302927777778,
                "lng": -99.124633333333,
                "name": "Cinemex Coapa Platino",
                "platinum": true,
                "state_id": 8
            },
            {
                "area_id": 20,
                "id": 89,
                "info": {
                    "address": "PLAZA CUICUILCO, AV. SAN FERNANDO NO. 649,COL. PE\u00d1A POBRE,MEXICO, D.F., C.P. 14060",
                    "phone": "5257-6969"
                },
                "lat": 19.298261111111,
                "lng": -99.181075,
                "name": "Cinemex Cuicuilco",
                "platinum": false,
                "state_id": 8
            },
            {
                "area_id": 20,
                "id": 90,
                "info": {
                    "address": "PLAZA CUICUILCO, AV. SAN FERNANDO NO. 649,COL. PE\u00d1A POBRE,MEXICO, D.F., C.P. 14060",
                    "phone": "5257-6969"
                },
                "lat": 19.298261111111,
                "lng": -99.181075,
                "name": "Cinemex Cuicuilco Platino",
                "platinum": true,
                "state_id": 8
            },
            {
                "area_id": 20,
                "id": 91,
                "info": {
                    "address": "GRAN SUR \nPERIFERICO SUR NO. 5550\nCOL. PEDREGAL DE CARRASCO, COYOACAN\nM\u00c9XICO, D. F., C.P. 04700",
                    "phone": "52576969"
                },
                "lat": 19.306825,
                "lng": -99.165911111111,
                "name": "Cinemex Gran Sur ",
                "platinum": false,
                "state_id": 8
            },
            {
                "area_id": 20,
                "id": 92,
                "info": {
                    "address": "PLAZA OPCION,\nALTAMIRANO NO. 46,\nCOL. TIZAPAN,\nM\u00c9XICO, D.F., C.P. 01090",
                    "phone": "52576969"
                },
                "lat": 19.339436111111,
                "lng": -99.194069444444,
                "name": "Cinemex Loreto",
                "platinum": false,
                "state_id": 8
            },
            {
                "area_id": 20,
                "id": 93,
                "info": {
                    "address": "Escuela Ex Hacienda de San Juan de Dios, Tlalpan, Distrito Federal, M\u00e9xico",
                    "phone": "5257-6969"
                },
                "lat": 19.290223,
                "lng": -99.131822,
                "name": "Cinemex Prado Coapa",
                "platinum": false,
                "state_id": 8
            },
            {
                "area_id": 20,
                "id": 94,
                "info": {
                    "address": "Del Im\u00e1n Bosques de Tetlameya, Coyoac\u00e1n, Distrito Federal, M\u00e9xico",
                    "phone": "5257-6969"
                },
                "lat": 19.299357,
                "lng": -99.150163,
                "name": "Cinemex Tlalpan",
                "platinum": false,
                "state_id": 8
            },
            {
                "area_id": 20,
                "id": 95,
                "info": {
                    "address": "AV. UNIVERSIDAD NO.  740 ESQ. SAN LORENZO,\nCOL. DEL VALLE, DEL. BENITO JUAREZ,\nM\u00c9XICO, D. F., C.P. 03100",
                    "phone": "52576969"
                },
                "lat": 19.3729,
                "lng": -99.162780555556,
                "name": "Cinemex Universidad",
                "platinum": false,
                "state_id": 8
            },
            {
                "area_id": 20,
                "id": 225,
                "info": {
                    "address": "Lateral Rio Churubusco esquina canal de miramontes, Col. Country Club, C.P. 04220, M\u00e9xico D.F.",
                    "phone": "5257-6969"
                },
                "lat": 19.35595,
                "lng": -99.134919444444,
                "name": "CNA",
                "platinum": false,
                "state_id": 8
            }
        ],
        "id": 20,
        "name": "Sur",
        "state_id": 8
    },
    {
        "cinemas": [
            {
                "area_id": 42,
                "id": 132,
                "info": {
                    "address": "CAMINO MEZQUITAL SANTA ROSA MEZQUITAL APODACA NUEVO LEON",
                    "phone": "01800-7108888"
                },
                "lat": 25.757277777778,
                "lng": -100.23533055556,
                "name": "Cinemex Apodaca",
                "platinum": false,
                "state_id": 16
            }
        ],
        "id": 42,
        "name": "Apodaca",
        "state_id": 16
    },
    {
        "cinemas": [
            {
                "area_id": 43,
                "id": 133,
                "info": {
                    "address": "MANUEL L.BARRAGAN COL EX HACIENDA EL CANADA ESCOBEDO NUEVO L",
                    "phone": "01800-7108888"
                },
                "lat": 25.773444444444,
                "lng": -100.303175,
                "name": "Cinemex Las Plazas Outlet",
                "platinum": false,
                "state_id": 16
            },
            {
                "area_id": 43,
                "id": 134,
                "info": {
                    "address": "AV. SENDERO NTE. 1001 ESQ. REPUBLICA MEXICANA COL. CERRADA DE ANAHUAC ESCOBEDO",
                    "phone": "01800-7108888"
                },
                "lat": 25.771638888889,
                "lng": -100.2744,
                "name": "Cinemex San Nicol\u00e1s",
                "platinum": false,
                "state_id": 16
            },
            {
                "area_id": 43,
                "id": 135,
                "info": {
                    "address": "AVENIDA PARQUE INDUSTRIAL COLONIA GIRASOLES ESCOBEDO NUEVO LEON",
                    "phone": "01800-7108888"
                },
                "lat": 25.788541666667,
                "lng": -100.31986388889,
                "name": "Mmc Escobedo",
                "platinum": false,
                "state_id": 16
            }
        ],
        "id": 43,
        "name": "Escobedo",
        "state_id": 16
    },
    {
        "cinemas": [
            {
                "area_id": 44,
                "id": 136,
                "info": {
                    "address": "AVENIDA ELOY CAVAZOS BOSQUES DE LA PASTORA GUADALUPE NUEVO L",
                    "phone": "01800-7108888"
                },
                "lat": 25.661561111111,
                "lng": -100.25075,
                "name": "Cinemex Contry",
                "platinum": false,
                "state_id": 16
            },
            {
                "area_id": 44,
                "id": 137,
                "info": {
                    "address": "AV. MIGUEL ALEM\u00c1N  ESQ. AV. CONSTITUCI\u00d3N COL. LINDAVISTA LOC. 201 C.C MULTIPLAZA LINDAVISTA GUADALUPE",
                    "phone": "01800-7108888"
                },
                "lat": 25.692797222222,
                "lng": -100.2399,
                "name": "Cinemex Lindavista",
                "platinum": false,
                "state_id": 16
            },
            {
                "area_id": 44,
                "id": 138,
                "info": {
                    "address": "AV. PABLO LIVAS NO. 7601 ORIENTE ESQ.CON AV. PROF. ISRAEL CAVAZOS GARZA COL. TRES CAMINOS",
                    "phone": "01800-7108888"
                },
                "lat": 25.657688888889,
                "lng": -100.18301666667,
                "name": "Mmc Sun Mall",
                "platinum": false,
                "state_id": 16
            }
        ],
        "id": 44,
        "name": "Guadalupe",
        "state_id": 16
    },
    {
        "cinemas": [
            {
                "area_id": 45,
                "id": 139,
                "info": {
                    "address": "CARR LIBRE A REYNOSA COL EL PASEO DEL PRADO JUAREZ NUEVO LEO",
                    "phone": "52576969"
                },
                "lat": 25.651072222222,
                "lng": -100.11211666667,
                "name": "Mmc Sun Mall Villa Ju\u00e1rez",
                "platinum": false,
                "state_id": 16
            }
        ],
        "id": 45,
        "name": "Ju\u00e1rez",
        "state_id": 16
    },
    {
        "cinemas": [
            {
                "area_id": 46,
                "id": 140,
                "info": {
                    "address": "AV. GUERRERO Y RUIZ CORTINEZ NO.2500 NTE FRACC. CENTRIKA 2o. SECTOR MTY",
                    "phone": "01800-7108888"
                },
                "lat": 25.70262,
                "lng": -100.309403,
                "name": "Cinemex C\u00e9ntrika",
                "platinum": false,
                "state_id": 16
            },
            {
                "area_id": 46,
                "id": 141,
                "info": {
                    "address": "PROLONGACI\u00d3N NO.352 COL.PEDREGAL DE CUMBRES",
                    "phone": "01800-7108888"
                },
                "lat": 25.732638,
                "lng": -100.394863,
                "name": "Cinemex Cumbres",
                "platinum": false,
                "state_id": 16
            },
            {
                "area_id": 46,
                "id": 142,
                "info": {
                    "address": "AV EUGENIO GARZA SADA COLONIA CONTRY MONTERREY NUEVO LEON",
                    "phone": "01800-7108888"
                },
                "lat": 25.637102777778,
                "lng": -100.28151388889,
                "name": "Cinemex La Silla",
                "platinum": false,
                "state_id": 16
            },
            {
                "area_id": 46,
                "id": 143,
                "info": {
                    "address": "AV. ABRAHAM LINCOLN NO. 8000 ENTRE AV. LUIS DONALDO COLOSIO Y BOSQUE CHAPULTEPEC CD. SOLIDARIDAD",
                    "phone": "01800-7108888"
                },
                "lat": 25.730719444444,
                "lng": -100.36958888889,
                "name": "Cinemex Lincoln",
                "platinum": false,
                "state_id": 16
            },
            {
                "area_id": 46,
                "id": 144,
                "info": {
                    "address": "AVENIDA REVOLUCION No. 401 COLONIA LADRILLERA C.P. 64830 MON",
                    "phone": "01800-7108888"
                },
                "lat": 25.655830555556,
                "lng": -100.27762222222,
                "name": "Cinemex Revoluci\u00f3n",
                "platinum": false,
                "state_id": 16
            },
            {
                "area_id": 46,
                "id": 145,
                "info": {
                    "address": "AV PASEO DE LEONES CUMBRES MONTERREY NUEVO LEON",
                    "phone": "01800-7108888"
                },
                "lat": 25.699563888889,
                "lng": -100.36055833333,
                "name": "Mmc Leones",
                "platinum": false,
                "state_id": 16
            }
        ],
        "id": 46,
        "name": "Monterrey",
        "state_id": 16
    },
    {
        "cinemas": [
            {
                "area_id": 47,
                "id": 146,
                "info": {
                    "address": "CALLE MANZANA NO. 236 COL. RESIDENCIAL ANAHUAC UBICADA EN EL MUNICIPIO DE SAN NICOL\u00c1S. C.P. 66457",
                    "phone": "01800-7108888"
                },
                "lat": 25.742875,
                "lng": -100.31323055556,
                "name": "Cinemex Fiesta An\u00e1huac",
                "platinum": false,
                "state_id": 16
            },
            {
                "area_id": 47,
                "id": 147,
                "info": {
                    "address": "AV. F\u00c9LIX GALV\u00c1N NO.120, COL. HDA. LOS MORALES SAN NICOL\u00c1S DE LOS GARZA",
                    "phone": "01800-7108888"
                },
                "lat": 25.714838888889,
                "lng": -100.25065277778,
                "name": "Cinemex Las Am\u00e9ricas",
                "platinum": false,
                "state_id": 16
            },
            {
                "area_id": 47,
                "id": 148,
                "info": {
                    "address": "AV. SANTO DOMINGO NO. 705 COL. JARD\u00cdN DE SAN NICOL\u00c1S, SAN NICOL\u00c1S DE LOS GARZA",
                    "phone": "01800-7108888"
                },
                "lat": 25.75543,
                "lng": -100.28172383333,
                "name": "Mmc Santo Domingo",
                "platinum": false,
                "state_id": 16
            }
        ],
        "id": 47,
        "name": "San Nicol\u00e1s",
        "state_id": 16
    },
    {
        "cinemas": [
            {
                "area_id": 48,
                "id": 149,
                "info": {
                    "address": "AV. HUMBERTO LOBO 540-A COL. DEL VALLE SAN PEDRO GARZA GARC\u00cdA",
                    "phone": "01800-7108888"
                },
                "lat": 25.665077777778,
                "lng": -100.38336666667,
                "name": "Cinemex Humberto Lobo",
                "platinum": false,
                "state_id": 16
            },
            {
                "area_id": 48,
                "id": 150,
                "info": {
                    "address": "JOSE VASCONSELOS NO. 402 ESQ. G\u00d3MEZ MORIN COL VALLE DEL CAMPESTRE",
                    "phone": "01800-7108888"
                },
                "lat": 25.65125,
                "lng": -100.35978611111,
                "name": "Cinemex Paseo San Pedro",
                "platinum": true,
                "state_id": 16
            },
            {
                "area_id": 48,
                "id": 151,
                "info": {
                    "address": "BATALL\u00d3N DE SAN PATRICIO NO. 1000 PLAZA FIESTA SAN AGUST\u00cdN SAN PEDRO GARZA GARC\u00cdA",
                    "phone": "01800-7108888"
                },
                "lat": 25.649252777778,
                "lng": -100.33755833333,
                "name": "Cinemex San Agust\u00edn",
                "platinum": false,
                "state_id": 16
            }
        ],
        "id": 48,
        "name": "San Pedro",
        "state_id": 16
    },
    {
        "cinemas": [
            {
                "area_id": 49,
                "id": 152,
                "info": {
                    "address": "CARRETERA MONTERREY SALTILLO INDUSTRIAS DEL PONIENTE SANTA C",
                    "phone": "01800-7108888"
                },
                "lat": 25.676661111111,
                "lng": -100.45009166667,
                "name": "Cinemex Santa Cata",
                "platinum": false,
                "state_id": 16
            }
        ],
        "id": 49,
        "name": "Santa Catarina",
        "state_id": 16
    },
    {
        "cinemas": [
            {
                "area_id": 1,
                "id": 1,
                "info": {
                    "address": "INDEPENDENCIA COLONIA TROJES DE ALONSO AGUASCALIENTES AGUASC",
                    "phone": "01800-7108888"
                },
                "lat": 21.924216,
                "lng": -102.294871,
                "name": "Cinemex Aguascalientes",
                "platinum": false,
                "state_id": 1
            },
            {
                "area_id": 1,
                "id": 2,
                "info": {
                    "address": "Av. Independencia, # 2351, Col. Trojes de Alonso, C.P. 20116, Aguascalientes, Aguascalientes.",
                    "phone": "449-9-12-39-92"
                },
                "lat": 21.924216,
                "lng": -102.294871,
                "name": "Cinemex Aguascalientes Platino",
                "platinum": true,
                "state_id": 1
            }
        ],
        "id": 1,
        "name": "Aguascalientes",
        "state_id": 1
    },
    {
        "cinemas": [
            {
                "area_id": 2,
                "id": 3,
                "info": {
                    "address": "BOULEVARD AGUA AZUL No. 7200 LOCAL A-6 COLONIA LOMA BONITA N",
                    "phone": "01800-7108888"
                },
                "lat": 32.482686833333,
                "lng": -117.04703,
                "name": "Cinemex Loma Bonita",
                "platinum": false,
                "state_id": 2
            },
            {
                "area_id": 2,
                "id": 4,
                "info": {
                    "address": "BOULEVARD INSURGENTES No. 160 TIJUANA BAJA CALIFORNIA",
                    "phone": "01800-7108888"
                },
                "lat": 32.494615,
                "lng": -116.932887,
                "name": "Cinemex Macroplaza Tijuana",
                "platinum": false,
                "state_id": 2
            },
            {
                "area_id": 2,
                "id": 5,
                "info": {
                    "address": "BOULEVARD LAZARO  CARDENAS No.2000 COLONIA PLUTARCO ELIAS CA",
                    "phone": "01800-7108888"
                },
                "lat": 32.621763888889,
                "lng": -115.40732222222,
                "name": "Cinemex Mexicali",
                "platinum": false,
                "state_id": 2
            }
        ],
        "id": 2,
        "name": "Mexicali",
        "state_id": 2
    },
    {
        "cinemas": [
            {
                "area_id": 3,
                "id": 6,
                "info": {
                    "address": "Prolongaci\u00f3n Pablo Valdez #350, Col. los Camichines, CP 45512 Tonala, Jalisco",
                    "phone": "01800-7108888"
                },
                "lat": 32.485873,
                "lng": -116.850377,
                "name": "Cinemex Oasis",
                "platinum": false,
                "state_id": 2
            }
        ],
        "id": 3,
        "name": "Tijuana",
        "state_id": 2
    },
    {
        "cinemas": [
            {
                "area_id": 4,
                "id": 7,
                "info": {
                    "address": "AV LAZARO CARDENAS CENTRO CABO SAN LUCAS CABO SAN LUCAS BAJA",
                    "phone": "01800-7108888"
                },
                "lat": 22.887127,
                "lng": -109.909694,
                "name": "Cinemex Cabo San Lucas",
                "platinum": false,
                "state_id": 3
            }
        ],
        "id": 4,
        "name": "Cabo San Lucas",
        "state_id": 3
    },
    {
        "cinemas": [
            {
                "area_id": 5,
                "id": 8,
                "info": {
                    "address": "Av. Constituyentes de 1975, No. 4120, Col. Sector Inalapa, Fraccionamiento Capullo, C.P. 23098, La Paz, Baja California Sur",
                    "phone": "01800-7108888"
                },
                "lat": 24.139528,
                "lng": -110.334154,
                "name": "Cinemex La Paz",
                "platinum": false,
                "state_id": 3
            },
            {
                "area_id": 5,
                "id": 9,
                "info": {
                    "address": "Av. Constituyentes de 1975, No. 4120, Col. Sector Inalapa, Fraccionamiento Capullo, C.P. 23098, La Paz, Baja California Sur",
                    "phone": "01800-7108888"
                },
                "lat": 24.139528,
                "lng": -110.334154,
                "name": "Cinemex La Paz Platino",
                "platinum": true,
                "state_id": 3
            }
        ],
        "id": 5,
        "name": "La Paz",
        "state_id": 3
    },
    {
        "cinemas": [
            {
                "area_id": 6,
                "id": 10,
                "info": {
                    "address": "PREDIO URBANO AV PERIF NTE COL ASA PTE CD DEL CARMEN CAMPECH",
                    "phone": "01800-7108888"
                },
                "lat": 18.650691666667,
                "lng": -91.813111111111,
                "name": "Cinemex Cd Del Carmen",
                "platinum": false,
                "state_id": 4
            },
            {
                "area_id": 6,
                "id": 11,
                "info": {
                    "address": "CARRETERA PUERTO REAL KILOMETRO PALMIRA CIUDAD DEL CARMEN CA",
                    "phone": "01800-7108888"
                },
                "lat": 18.657358,
                "lng": -91.790906,
                "name": "Cinemex Palmira",
                "platinum": false,
                "state_id": 4
            }
        ],
        "id": 6,
        "name": "Cd. Del Carmen",
        "state_id": 4
    },
    {
        "cinemas": [
            {
                "area_id": 7,
                "id": 12,
                "info": {
                    "address": "AVENIDA TECNOLOGICO COLONIA FUENTES DEL VALLE CIUDAD JUAREZ ",
                    "phone": "01800-7108888"
                },
                "lat": 31.714161111111,
                "lng": -106.42179444444,
                "name": "Cinemex Galer\u00edas TEC",
                "platinum": false,
                "state_id": 5
            },
            {
                "area_id": 7,
                "id": 13,
                "info": {
                    "address": "PASEO TRIUNFO DE LA REPUBLICA COLONIA SAN LORENZO CIUDAD JUA",
                    "phone": "01800-7108888"
                },
                "lat": 31.735205555556,
                "lng": -106.42756666667,
                "name": "Mmc San Lorenzo",
                "platinum": false,
                "state_id": 5
            },
            {
                "area_id": 7,
                "id": 14,
                "info": {
                    "address": "EDUARDO SANDERS No. 1551 COLONIA EL BARREAL CIUDAD JUAREZ CH",
                    "phone": "01800-7108888"
                },
                "lat": 31.72305,
                "lng": -106.47022222222,
                "name": "Mmc Sanders",
                "platinum": false,
                "state_id": 5
            }
        ],
        "id": 7,
        "name": "Cd. Ju\u00e1rez",
        "state_id": 5
    },
    {
        "cinemas": [
            {
                "area_id": 8,
                "id": 15,
                "info": {
                    "address": "BOULEVARD JOSE FUENTES MARES COLONIA SANTA ROSA CHIHUAHUA",
                    "phone": "01800-7108888"
                },
                "lat": 28.62065,
                "lng": -106.04982222222,
                "name": "Cinemex Fuentes Mares",
                "platinum": false,
                "state_id": 5
            },
            {
                "area_id": 8,
                "id": 16,
                "info": {
                    "address": "Perif\u00e9rico de la Juventud #401, Col Paseos de Chihuahua, C.P. 31125, Chihuahua, Chihuahua",
                    "phone": "01800-7108888"
                },
                "lat": 28.689383,
                "lng": -106.132565,
                "name": "Cinemex Juventud",
                "platinum": false,
                "state_id": 5
            },
            {
                "area_id": 8,
                "id": 17,
                "info": {
                    "address": "BOULEVARD MIRADOR E INDIANA COLONIA LAS AGUILAS CHIHUAHUA CH",
                    "phone": "01800-7108888"
                },
                "lat": 28.639088888889,
                "lng": -106.09979444444,
                "name": "Cinemex Mirador",
                "platinum": false,
                "state_id": 5
            }
        ],
        "id": 8,
        "name": "Chihuahua",
        "state_id": 5
    },
    {
        "cinemas": [
            {
                "area_id": 9,
                "id": 18,
                "info": {
                    "address": "AVENIDA DEL PARQUE ORIENTE No.1000 LOCAL C SECTOR ORIENTE DE",
                    "phone": "01800-7108888"
                },
                "lat": 28.185941666667,
                "lng": -105.46142777778,
                "name": "Mmc Delicias",
                "platinum": false,
                "state_id": 5
            }
        ],
        "id": 9,
        "name": "Delicias",
        "state_id": 5
    },
    {
        "cinemas": [
            {
                "area_id": 11,
                "id": 19,
                "info": {
                    "address": "AVENIDA HUEMAC ESQUINA BRASIL COLONIA ANAHUAC MONCLOVA COAHU",
                    "phone": "01800-7108888"
                },
                "lat": 26.901127777778,
                "lng": -101.43733333333,
                "name": "Cinemex Monclova",
                "platinum": false,
                "state_id": 6
            }
        ],
        "id": 11,
        "name": "Monclova",
        "state_id": 6
    },
    {
        "cinemas": [
            {
                "area_id": 12,
                "id": 20,
                "info": {
                    "address": "BOULEVARD NAZARIO ORTIZ GARZA S/N COLONIA VILLA OLIMPICA NOR",
                    "phone": "01800-7108888"
                },
                "lat": 25.452516666667,
                "lng": -100.97074166667,
                "name": "Cinemex Galer\u00edas Saltillo",
                "platinum": true,
                "state_id": 6
            },
            {
                "area_id": 12,
                "id": 21,
                "info": {
                    "address": "PERIFERICO LUIS ECHEVERRIA No. 999-2 COLONIA LOURDES SALTILL",
                    "phone": "01800-7108888"
                },
                "lat": 25.392580555556,
                "lng": -101.00343611111,
                "name": "Mmc Lourdes",
                "platinum": false,
                "state_id": 6
            },
            {
                "area_id": 12,
                "id": 22,
                "info": {
                    "address": "CARRETERATORREON MATAMOROS No. 5000 ORIENTE COLONIA PROVITEC",
                    "phone": "01800-7108888"
                },
                "lat": 25.533680555556,
                "lng": -103.39579166667,
                "name": "Mmc Torre\u00f3n",
                "platinum": false,
                "state_id": 6
            }
        ],
        "id": 12,
        "name": "Saltillo",
        "state_id": 6
    },
    {
        "cinemas": [
            {
                "area_id": 13,
                "id": 23,
                "info": {
                    "address": "Jos\u00e9 Vasconcelos, n\u00fam 1955, Residencial Tecnol\u00f3gico, CP 27276, Torre\u00f3n, Coahuila",
                    "phone": " 018007108888"
                },
                "lat": 25.525752,
                "lng": -103.39731183333,
                "name": "Cinemex Intermall ",
                "platinum": false,
                "state_id": 6
            },
            {
                "area_id": 13,
                "id": 24,
                "info": {
                    "address": "Jos\u00e9 Vasconcelos, n\u00fam 1955, Residencial Tecnol\u00f3gico, CP 27276, Torre\u00f3n, Coahuila",
                    "phone": " 018007108888"
                },
                "lat": 25.525752,
                "lng": -103.39731183333,
                "name": "Cinemex Intermall Platino",
                "platinum": true,
                "state_id": 6
            }
        ],
        "id": 13,
        "name": "Torre\u00f3n",
        "state_id": 6
    },
    {
        "cinemas": [
            {
                "area_id": 14,
                "id": 25,
                "info": {
                    "address": "AV. PATRIA ESQ. AV. MANUEL J. CLOUHTIER, COL. PRADOS DEL TEPEYAC",
                    "phone": "01800-7108888"
                },
                "lat": 20.658496,
                "lng": -103.422943,
                "name": "Cinemex Colima",
                "platinum": false,
                "state_id": 7
            }
        ],
        "id": 14,
        "name": "Colima",
        "state_id": 7
    },
    {
        "cinemas": [
            {
                "area_id": 21,
                "id": 96,
                "info": {
                    "address": "AVENIDA FELIPE PESCADOR No. 1107 COLONIA ESPERANZA DURANGO D",
                    "phone": "01800-7108888"
                },
                "lat": 24.036519444444,
                "lng": -104.65131388889,
                "name": "Cinemex Durango",
                "platinum": false,
                "state_id": 9
            },
            {
                "area_id": 21,
                "id": 97,
                "info": {
                    "address": "Blvd. Felipe Pescador #1401, Col. ESPERANZA, C.P. 34080, Durango",
                    "phone": "8360670-8360671"
                },
                "lat": 24.036519444444,
                "lng": -104.65131388889,
                "name": "Cinemex Durango Platino",
                "platinum": true,
                "state_id": 9
            }
        ],
        "id": 21,
        "name": "Durango",
        "state_id": 9
    },
    {
        "cinemas": [
            {
                "area_id": 22,
                "id": 98,
                "info": {
                    "address": "BOULEVARD MIGUEL ALEMAN Y GONZALEZ DE LA VEGA,  COLONIA EL",
                    "phone": "01800-7108888"
                },
                "lat": 25.549336,
                "lng": -103.47825,
                "name": "Cinemex G\u00f3mez Palacio",
                "platinum": false,
                "state_id": 9
            },
            {
                "area_id": 22,
                "id": 99,
                "info": {
                    "address": "Calz. Francisco Villa  sn, Col. Rinconadas Hamburgo, C.P. 35018, Gomez Palacio, Durango ",
                    "phone": "01800-710-8888"
                },
                "lat": 25.592226,
                "lng": -103.495846,
                "name": "Cinemex Hamburgo",
                "platinum": false,
                "state_id": 9
            }
        ],
        "id": 22,
        "name": "G\u00f3mez Palacios",
        "state_id": 9
    },
    {
        "cinemas": [
            {
                "area_id": 23,
                "id": 100,
                "info": {
                    "address": "AVE 1 DE MAYO Y JORGE JIMENEZ CANTU ATLACOMULCO",
                    "phone": "01800-7108888"
                },
                "lat": 19.790819444444,
                "lng": -99.888583333333,
                "name": "Cinemex Atlacomulco",
                "platinum": false,
                "state_id": 10
            }
        ],
        "id": 23,
        "name": "Atlacomulco",
        "state_id": 10
    },
    {
        "cinemas": [
            {
                "area_id": 24,
                "id": 101,
                "info": {
                    "address": "MMC LERMA\n\nKM. 50 AUTOPISTA MEX.-TOLUCA\n\nESQ CHOLULA,\n\nTOLUCA, EDO. MEX",
                    "phone": "01800-7108888"
                },
                "lat": 19.284319444444,
                "lng": -99.495275,
                "name": "Cinemex Lerma",
                "platinum": false,
                "state_id": 10
            }
        ],
        "id": 24,
        "name": "Lerma",
        "state_id": 10
    },
    {
        "cinemas": [
            {
                "area_id": 25,
                "id": 102,
                "info": {
                    "address": "CARRETERA TOLUCA-TENANGO NO. 505 NORTE,\nCOL. RANCHO SAN JUAN  METEPEC,\nESTADO DE MEXICO, C.P. 11300",
                    "phone": "01800-7108888"
                },
                "lat": 19.258988888889,
                "lng": -99.627780555556,
                "name": "Cinemex Metepec",
                "platinum": false,
                "state_id": 10
            }
        ],
        "id": 25,
        "name": "Metepec",
        "state_id": 10
    },
    {
        "cinemas": [
            {
                "area_id": 26,
                "id": 103,
                "info": {
                    "address": "CARRETERA NAUCALPAN TOLUCA NUMERO 1101 COLONIA SAN MATEO OTZ",
                    "phone": "01800-7108888"
                },
                "lat": 19.350505,
                "lng": -99.591773,
                "name": "Cinemex Sant\u00edn",
                "platinum": false,
                "state_id": 10
            },
            {
                "area_id": 26,
                "id": 104,
                "info": {
                    "address": "BLVD. ALFREDO DEL MAZO NO. 705,\nESQ. AV. FILIBERTO GOMEZ,\nBARRIO DE TLACOPA, TOLUCA, EDO. DE M\u00c9XICO,\n(JUNTO A CARREFOUR)",
                    "phone": "01800-7108888"
                },
                "lat": 19.310605555556,
                "lng": -99.635883333333,
                "name": "Cinemex Toluca",
                "platinum": false,
                "state_id": 10
            }
        ],
        "id": 26,
        "name": "Toluca",
        "state_id": 10
    },
    {
        "cinemas": [
            {
                "area_id": 27,
                "id": 105,
                "info": {
                    "address": "BLVD POZUELOS COL LOMAS DE POZUELOS GUANAJUATO GUANAJUATO",
                    "phone": "01800-7108888"
                },
                "lat": 21.013519444444,
                "lng": -101.26143333333,
                "name": "Cinemex Guanajuato",
                "platinum": false,
                "state_id": 11
            }
        ],
        "id": 27,
        "name": "Guanajuato",
        "state_id": 11
    },
    {
        "cinemas": [
            {
                "area_id": 28,
                "id": 106,
                "info": {
                    "address": "AV. ENRIQUE COLUNGA 1184, COL. 18 DE AGOSTO, C.P. 036590, IRAPUATO, GUANAJUATO",
                    "phone": "01800-710-8888"
                },
                "lat": 20.685167,
                "lng": -101.367846,
                "name": "Cinemex San Roque",
                "platinum": false,
                "state_id": 11
            }
        ],
        "id": 28,
        "name": "Irapuato",
        "state_id": 11
    },
    {
        "cinemas": [
            {
                "area_id": 29,
                "id": 107,
                "info": {
                    "address": {},
                    "phone": {}
                },
                "lat": 21.11624,
                "lng": -101.658828,
                "name": "Cinemex Galer\u00edas Le\u00f3n",
                "platinum": false,
                "state_id": 11
            },
            {
                "area_id": 29,
                "id": 109,
                "info": {
                    "address": "AV LAS TORRES COL DEL VALLE CAMPESTRE LEON GUANAJUATO",
                    "phone": "01800-7108888"
                },
                "lat": 21.159002777778,
                "lng": -101.69548888889,
                "name": "Cinemex Plaza Mayor",
                "platinum": false,
                "state_id": 11
            },
            {
                "area_id": 29,
                "id": 108,
                "info": {
                    "address": "BOULEVARD MARIANO ESCOBEDO COL TLACUACHE LEON GUANAJUATO",
                    "phone": "01800-7108888"
                },
                "lat": 21.107603,
                "lng": -101.660485,
                "name": "Mmc Malec\u00f3n",
                "platinum": false,
                "state_id": 11
            }
        ],
        "id": 29,
        "name": "Le\u00f3n",
        "state_id": 11
    },
    {
        "cinemas": [
            {
                "area_id": 30,
                "id": 110,
                "info": {
                    "address": "LIBRAMIENTO JOSE MANUEL ZAVALA COL CENTRO SAN MIGUEL DE ALLE",
                    "phone": "01800-7108888"
                },
                "lat": 20.902813888889,
                "lng": -100.72800555556,
                "name": "Cinemex San Miguel De Allende",
                "platinum": false,
                "state_id": 11
            }
        ],
        "id": 30,
        "name": "San Miguel De Allende",
        "state_id": 11
    },
    {
        "cinemas": [
            {
                "area_id": 31,
                "id": 111,
                "info": {
                    "address": "Boulevard de las Naciones No. 802 Granjas del Marques Acapulco Guerrero Cp 39890",
                    "phone": "01800-7108888"
                },
                "lat": 16.797762,
                "lng": -99.811049,
                "name": "Cinemex Las Palmas",
                "platinum": false,
                "state_id": 12
            }
        ],
        "id": 31,
        "name": "Acapulco",
        "state_id": 12
    },
    {
        "cinemas": [
            {
                "area_id": 32,
                "id": 112,
                "info": {
                    "address": "Boulevard Luis Donaldo Colosio 2009 Ex-hacienda de Coscotitl\u00e1n, 42064 Pachuca de Soto, Hidalgo",
                    "phone": "01800-710-8888"
                },
                "lat": 20.094448,
                "lng": -98.757565,
                "name": "Cinemex Gp Pachuca",
                "platinum": false,
                "state_id": 13
            },
            {
                "area_id": 32,
                "id": 113,
                "info": {
                    "address": "AVENIDA LUIS DONALDO COLOSIO No. 1501",
                    "phone": "01800-7108888"
                },
                "lat": 20.096897222222,
                "lng": -98.762061111111,
                "name": "Cinemex Pachuca",
                "platinum": false,
                "state_id": 13
            },
            {
                "area_id": 32,
                "id": 114,
                "info": {
                    "address": "BOULEVARD COLOSIO S/N FRACCIONAMIENTO COLINAS DE PLATA",
                    "phone": "01800-7108888"
                },
                "lat": 20.081269444444,
                "lng": -98.728311111111,
                "name": "Cinemex Plaza Q",
                "platinum": false,
                "state_id": 13
            }
        ],
        "id": 32,
        "name": "Pachuca",
        "state_id": 13
    },
    {
        "cinemas": [
            {
                "area_id": 33,
                "id": 115,
                "info": {
                    "address": "BOULEVARD MIGUEL HIDALGO No. 1101, Fraccionamiento santa ana, Tulancingo del bravo",
                    "phone": "01800-7108888"
                },
                "lat": 20.075494,
                "lng": -98.384639,
                "name": "Cinemex Tulancingo",
                "platinum": false,
                "state_id": 13
            }
        ],
        "id": 33,
        "name": "Tulancingo",
        "state_id": 13
    },
    {
        "cinemas": [
            {
                "area_id": 34,
                "id": 116,
                "info": {
                    "address": "CALZADA MADERO Y CARRANZA No. 570 COLONIA CENTRO CD GUZMAN J",
                    "phone": "01800-7108888"
                },
                "lat": 19.703108333333,
                "lng": -103.48309166667,
                "name": "Cinemex Cd Guzm\u00e1n",
                "platinum": false,
                "state_id": 14
            }
        ],
        "id": 34,
        "name": "Cd. Guzm\u00e1n",
        "state_id": 14
    },
    {
        "cinemas": [
            {
                "area_id": 35,
                "id": 117,
                "info": {
                    "address": "AV PATRIA COL PRADOS DEL TEPEYAC ZAPOPAN JALISCO",
                    "phone": "01800-7108888"
                },
                "lat": 20.659197222222,
                "lng": -103.42129166667,
                "name": "Cinemex Cordilleras",
                "platinum": false,
                "state_id": 14
            },
            {
                "area_id": 35,
                "id": 118,
                "info": {
                    "address": "PLAZA LOMAS,RIO NILO NO. 7540,FRACC. VILLAS DE ORIENTE,TONAL\u00c1, JALISCO, C.P. 84840",
                    "phone": "01800-7108888"
                },
                "lat": 20.640713888889,
                "lng": -103.27887222222,
                "name": "Cinemex Guadalajara",
                "platinum": false,
                "state_id": 14
            },
            {
                "area_id": 35,
                "id": 119,
                "info": {
                    "address": "Carr Guadalajara-Morelia-Mexico Km 12 Mun. Tlajomulco de Zu\u00f1iga, Jalisco",
                    "phone": "01800-7108888"
                },
                "lat": 20.520763888889,
                "lng": -103.48385277778,
                "name": "Cinemex Las Plazas",
                "platinum": false,
                "state_id": 14
            },
            {
                "area_id": 35,
                "id": 120,
                "info": {
                    "address": "AV. AMERICAS, N\u00famero  1501, Col. Providencia, C.P 44630, Guadalajara, Jalisco",
                    "phone": "38173493 - 38171896"
                },
                "lat": 20.702091,
                "lng": -103.3765,
                "name": "Cinemex Sao Paulo Guadalajara",
                "platinum": true,
                "state_id": 14
            },
            {
                "area_id": 35,
                "id": 121,
                "info": {
                    "address": "AV. NI\u00d1OS H\u00c9ROES (ANTIGUO CAMINO A TONALA) NO. 720 ESQ. AVE. REVOLUCI\u00d3N COL. HIDALGO",
                    "phone": "01800-7108888"
                },
                "lat": 20.631713888889,
                "lng": -103.29286111111,
                "name": "Cinemex Tlaquepaque",
                "platinum": false,
                "state_id": 14
            },
            {
                "area_id": 35,
                "id": 122,
                "info": {
                    "address": "Santa Ana Sin Nombre, Zapopan, Jalisco, M\u00e9xico",
                    "phone": "01800-710-8888"
                },
                "lat": 20.723383833333,
                "lng": -103.41210983333,
                "name": "Cinemex Zapopan",
                "platinum": false,
                "state_id": 14
            }
        ],
        "id": 35,
        "name": "Guadalajara",
        "state_id": 14
    },
    {
        "cinemas": [
            {
                "area_id": 36,
                "id": 123,
                "info": {
                    "address": "AVENIDA UNIVERSIDAD No. 430 COLONIA SAN FELIPE OCOTLAN JALIS",
                    "phone": "01800-7108888"
                },
                "lat": 20.370277,
                "lng": -102.76915983333,
                "name": "Cinemex Ocotl\u00e1n",
                "platinum": false,
                "state_id": 14
            }
        ],
        "id": 36,
        "name": "Ocotl\u00e1n",
        "state_id": 14
    },
    {
        "cinemas": [
            {
                "area_id": 37,
                "id": 124,
                "info": {
                    "address": "Av. Francisco Villa, centro comercial Macroplaza Vallarta #1526, col los sauces, cp 48328, Puerto Vallarta, Jalisco",
                    "phone": {}
                },
                "lat": 20.64582,
                "lng": -105.22012,
                "name": "Cinemex Macroplaza Vallarta",
                "platinum": false,
                "state_id": 14
            },
            {
                "area_id": 37,
                "id": 125,
                "info": {
                    "address": "FRANCISCO MEDINA ASCENCIO No. 2920 ZONA HOTELERA NORTE PUERT",
                    "phone": "01800-7108888"
                },
                "lat": 20.658041666667,
                "lng": -105.23870555556,
                "name": "Cinemex Puerto Vallarta",
                "platinum": false,
                "state_id": 14
            }
        ],
        "id": 37,
        "name": "Puerto Vallarta",
        "state_id": 14
    },
    {
        "cinemas": [
            {
                "area_id": 38,
                "id": 126,
                "info": {
                    "address": "PROLONGACION PABLO VALDEZ 350, CAMICHINES TONALA JALISCO",
                    "phone": "01800-7108888"
                },
                "lat": 20.676933333333,
                "lng": -103.26105277778,
                "name": "Cinemex San Gaspar",
                "platinum": false,
                "state_id": 14
            }
        ],
        "id": 38,
        "name": "Tonal\u00e1",
        "state_id": 14
    },
    {
        "cinemas": [
            {
                "area_id": 39,
                "id": 127,
                "info": {
                    "address": "Av. Tulipanes No.548, Col Unidad 7.4 C.P. 60950 , Lazaro Cardenas, Michoac\u00e1n Aun costado de SORIANA Y COPPEL NOYOLA",
                    "phone": "01800-7108888"
                },
                "lat": 17.969839,
                "lng": -102.211926,
                "name": "Cinemex L\u00e1zaro C\u00e1rdenas",
                "platinum": false,
                "state_id": 15
            }
        ],
        "id": 39,
        "name": "L\u00e1zaro C\u00e1rdenas",
        "state_id": 15
    },
    {
        "cinemas": [
            {
                "area_id": 40,
                "id": 128,
                "info": {
                    "address": "AVE MONTA\u00d1A MONARCA NORTE,NUMERO 1000. COLONIA DESARROLLO MONTA\u00d1A MONARCA.MORELIA MICHOACAN",
                    "phone": "01800-7108888"
                },
                "lat": 19.674009,
                "lng": -101.16374,
                "name": "Cinemex Morelia",
                "platinum": false,
                "state_id": 15
            },
            {
                "area_id": 40,
                "id": 129,
                "info": {
                    "address": "Perif\u00e9rico Republica, esquina con Gral.\u00a0 Ger\u00f3nimo Trevi\u00f1o Norte #3380, Col. Ex hacienda de Quinceo, C.P. 58115, Morelia, M\u00e9xico",
                    "phone": {}
                },
                "lat": 19.727720833333,
                "lng": -101.22141783333,
                "name": "Cinemex Morelia II",
                "platinum": false,
                "state_id": 15
            },
            {
                "area_id": 40,
                "id": 130,
                "info": {
                    "address": "AVE MONTA\u00d1A MONARCA NORTE,NUMERO 1000. COLONIA DESARROLLO MONTA\u00d1A MONARCA.MORELIA MICHOACAN",
                    "phone": "01800-7108888"
                },
                "lat": 19.673828,
                "lng": -101.163826,
                "name": "Cinemex Morelia Platino",
                "platinum": true,
                "state_id": 15
            }
        ],
        "id": 40,
        "name": "Morelia",
        "state_id": 15
    },
    {
        "cinemas": [
            {
                "area_id": 41,
                "id": 131,
                "info": {
                    "address": "Madero sur 2001, CP 59680,Col centr\u00f3 ,Zamora Michoac\u00e1n ",
                    "phone": "01800-7108888"
                },
                "lat": 19.979237,
                "lng": -102.290296,
                "name": "Cinemex Paseo Zamora",
                "platinum": false,
                "state_id": 15
            }
        ],
        "id": 41,
        "name": "Zamora",
        "state_id": 15
    },
    {
        "cinemas": [
            {
                "area_id": 50,
                "id": 153,
                "info": {
                    "address": "Libramiento Cuautla-Oaxtepec, Km 31 #900 Ejido Telencingo. 62757 Cuautla Morelos.",
                    "phone": "01800-7108888"
                },
                "lat": 18.868359833333,
                "lng": -98.950215,
                "name": "Cinemex Cuautla",
                "platinum": false,
                "state_id": 17
            }
        ],
        "id": 50,
        "name": "Cuautla",
        "state_id": 17
    },
    {
        "cinemas": [
            {
                "area_id": 51,
                "id": 154,
                "info": {
                    "address": "AUTOP. MEX-ACA KM. 87.5 LIBRAMIENTO CUERNAVACA, ESQ. AV. DIANA COL. RICARDO FLORES MAGON, C.P. 62370",
                    "phone": "01800-7108888"
                },
                "lat": 18.934936111111,
                "lng": -99.193869444444,
                "name": "Cinemex Diana",
                "platinum": false,
                "state_id": 17
            },
            {
                "area_id": 51,
                "id": 155,
                "info": {
                    "address": "PLAZA CUERNAVACA,\nAV. CUAUHNAHUAC KM. 5,\nFRACC. ALEGR\u00cdA CARREFOUR,\nCUERNAVACA, MORELOS, C.P. 62370",
                    "phone": "01800-7108888"
                },
                "lat": 18.9219,
                "lng": -99.198516666667,
                "name": "Cinemex Jacarandas",
                "platinum": false,
                "state_id": 17
            }
        ],
        "id": 51,
        "name": "Cuernavaca",
        "state_id": 17
    },
    {
        "cinemas": [
            {
                "area_id": 52,
                "id": 156,
                "info": {
                    "address": "BOULEVARD LUIS DONALDO COLOSIO SUBCENTRO URBANO ORIENTE TEPI",
                    "phone": "01800-7108888"
                },
                "lat": 21.492141666667,
                "lng": -104.86890833333,
                "name": "Cinemex Forum Tepic",
                "platinum": false,
                "state_id": 18
            },
            {
                "area_id": 52,
                "id": 157,
                "info": {
                    "address": "BLVD. LUIS DONALDO COLOSIO 680 (PLAZA FORUM PLANTA ALTA) C.P.63175 TEPIC,NAYARIT",
                    "phone": "018007108888"
                },
                "lat": 21.505011111111,
                "lng": -104.87620555556,
                "name": "Cinemex Forum Tepic Platino",
                "platinum": true,
                "state_id": 18
            },
            {
                "area_id": 52,
                "id": 158,
                "info": {
                    "address": "AVENIDA INSURGENTES COLONIALOS LLANITOS TEPIC NAYARIT",
                    "phone": "01800-7108888"
                },
                "lat": 21.497544444444,
                "lng": -104.88369166667,
                "name": "Cinemex Tepic",
                "platinum": false,
                "state_id": 18
            }
        ],
        "id": 52,
        "name": "Tepic",
        "state_id": 18
    },
    {
        "cinemas": [
            {
                "area_id": 54,
                "id": 159,
                "info": {
                    "address": "AVENIDA UNIVERSIDAD COL EX HACIENDA DE CANDIANI OAXACA OAXAC",
                    "phone": "01800-7108888"
                },
                "lat": 17.038655555556,
                "lng": -96.7117,
                "name": "Cinemex Oaxaca",
                "platinum": false,
                "state_id": 20
            },
            {
                "area_id": 54,
                "id": 160,
                "info": {
                    "address": "NUEVA CARRETERA A MONTE ALBAN, COLONIA AGENCIA DE MONTOYA.CP 68036 OAXACA DE JUAREZ.OAXACA",
                    "phone": "01800-7108888"
                },
                "lat": 17.074856,
                "lng": -96.758292,
                "name": "Cinemex Plaza Bella",
                "platinum": false,
                "state_id": 20
            }
        ],
        "id": 54,
        "name": "Oaxaca",
        "state_id": 20
    },
    {
        "cinemas": [
            {
                "area_id": 90,
                "id": 228,
                "info": {
                    "address": "Carretera Federal (Trans\u00edsmica) #10, Col Granadillo, C.P. 70610, Salina Cruz, Oaxaca",
                    "phone": {}
                },
                "lat": 21.160401,
                "lng": -101.691711,
                "name": "Cinemex Salina Cruz",
                "platinum": false,
                "state_id": 20
            }
        ],
        "id": 90,
        "name": "Salina Cruz",
        "state_id": 20
    },
    {
        "cinemas": [
            {
                "area_id": 55,
                "id": 161,
                "info": {
                    "address": "BOULEVARD BENITO JUAREZ No. 975 FRACCIONAMIENTO LOS ANGELES ",
                    "phone": "01800-7108888"
                },
                "lat": 18.0939,
                "lng": -96.129819444444,
                "name": "Mmc Tuxtepec",
                "platinum": false,
                "state_id": 20
            }
        ],
        "id": 55,
        "name": "Tuxtepec",
        "state_id": 20
    },
    {
        "cinemas": [
            {
                "area_id": 56,
                "id": 162,
                "info": {
                    "address": "BOULEVARD NORTE  Y  HEROES DEL 5 DE MAYO COLONIA SANTA MAR\u00cdA",
                    "phone": "01800-7108888"
                },
                "lat": 19.075325,
                "lng": -98.199283333333,
                "name": "Cinemex Del Parque",
                "platinum": false,
                "state_id": 21
            },
            {
                "area_id": 56,
                "id": 163,
                "info": {
                    "address": "VIA. ATLIXCAYOTL No. 4931 COLONIA UNIDAD TERRITORIAL ATLIXCAYOTL CP72450 PUEBLA",
                    "phone": "01800-7108888"
                },
                "lat": 19.035113888889,
                "lng": -98.228763888889,
                "name": "Cinemex Milenium",
                "platinum": false,
                "state_id": 21
            },
            {
                "area_id": 56,
                "id": 164,
                "info": {
                    "address": "Centro Comercial Plaza Dorada, Heroica Puebla de Zaragoza, PUE",
                    "phone": "01800-710-8888"
                },
                "lat": 19.029272,
                "lng": -98.202675,
                "name": "Cinemex Plaza Dorada Puebla",
                "platinum": false,
                "state_id": 21
            },
            {
                "area_id": 56,
                "id": 165,
                "info": {
                    "address": "Arroyo de xonaca no.1006Arroyo de xonaca no.1006 Col. Barrio el alto CP 72000 Puebla, Puebla",
                    "phone": "01800-7108888"
                },
                "lat": 19.043367,
                "lng": -98.191638,
                "name": "Cinemex Puebla",
                "platinum": false,
                "state_id": 21
            },
            {
                "area_id": 56,
                "id": 166,
                "info": {
                    "address": "7\u00ba PONIENTE No. 102 COLONIA  CENTRO ",
                    "phone": "01800-7108888"
                },
                "lat": 19.059625,
                "lng": -98.308880555556,
                "name": "Cinemex Puebla Centro",
                "platinum": false,
                "state_id": 21
            }
        ],
        "id": 56,
        "name": "Puebla",
        "state_id": 21
    },
    {
        "cinemas": [
            {
                "area_id": 57,
                "id": 167,
                "info": {
                    "address": "AV. PROLONGACI\u00d3N CANDILES  204\n\nFRACCIONAMIENTO CAMINO REAL\n\nMUNICIPIO CORREGIDORA\n\nC.P. 76921 QUER\u00c9TARO.",
                    "phone": "01800-7108888"
                },
                "lat": 20.546238888889,
                "lng": -100.39451944444,
                "name": "Cinemex Candiles",
                "platinum": false,
                "state_id": 22
            },
            {
                "area_id": 57,
                "id": 168,
                "info": {
                    "address": "KM 3 CARRETERA LIBRE A CELAYA COL EJIDOS LOS OLVERA CORREGID",
                    "phone": "01800-7108888"
                },
                "lat": 20.550629,
                "lng": -100.42315,
                "name": "Cinemex Constituyentes",
                "platinum": false,
                "state_id": 22
            },
            {
                "area_id": 57,
                "id": 169,
                "info": {
                    "address": "Carretera Panamericana, Colonia La Venta, San Juan del R\u00edo Quer\u00e9taro C.P. 7785, En el\u00a0centro comercial Galer\u00edas San Juan del R\u00edo",
                    "phone": "\u00a0018007108888"
                },
                "lat": 20.383655555556,
                "lng": -100.01293888889,
                "name": "Cinemex San Juan Del R\u00edo",
                "platinum": false,
                "state_id": 22
            }
        ],
        "id": 57,
        "name": "Quer\u00e9taro",
        "state_id": 22
    },
    {
        "cinemas": [
            {
                "area_id": 58,
                "id": 170,
                "info": {
                    "address": "AVENIDA ANDRES QUINTANA ROO PREDIO LOS ALMENDROS CANCUN QUIN",
                    "phone": "01800-7108888"
                },
                "lat": 21.151975,
                "lng": -86.847077777778,
                "name": "Cinemex Canc\u00fan",
                "platinum": false,
                "state_id": 23
            },
            {
                "area_id": 58,
                "id": 171,
                "info": {
                    "address": "SUPERMANZANA 248 MANZANA11 LOTE 111016, ESQUINA AV. KABAH Y AV. DE LOS TULES SN REGI\u00d3N BENITO JU\u00c1REZ 248 CP. 77516 CANC\u00daN QUINTANA ROO.",
                    "phone": {}
                },
                "lat": 21.190414,
                "lng": -86.869410833333,
                "name": "Cinemex Multiplaza Canc\u00fan",
                "platinum": false,
                "state_id": 23
            }
        ],
        "id": 58,
        "name": "Canc\u00fan",
        "state_id": 23
    },
    {
        "cinemas": [
            {
                "area_id": 59,
                "id": 172,
                "info": {
                    "address": "AV ERICK PAOLO MARTINEZ #120, COL. DEL SOL, C.P. 77026, CHETUMAL, QUINTANA ROO",
                    "phone": "01800-710-8888"
                },
                "lat": 18.524823833333,
                "lng": -88.311967833333,
                "name": "Cinemex Chetumal",
                "platinum": false,
                "state_id": 23
            }
        ],
        "id": 59,
        "name": "Chetumal",
        "state_id": 23
    },
    {
        "cinemas": [
            {
                "area_id": 60,
                "id": 173,
                "info": {
                    "address": "CARRETERA FEDERAL COLONIA EJIDAL PLAYA DEL CARMEN QUINTANA R",
                    "phone": "01800-7108888"
                },
                "lat": 20.635636111111,
                "lng": -87.095669444444,
                "name": "Cinemex Playa Del Carmen",
                "platinum": false,
                "state_id": 23
            }
        ],
        "id": 60,
        "name": "Playa Del Carmen",
        "state_id": 23
    },
    {
        "cinemas": [
            {
                "area_id": 61,
                "id": 174,
                "info": {
                    "address": "CARRETERA MEXICO LAREDO No. 100 COLONIA MOCTEZUMA CD VALLES ",
                    "phone": "01800-7108888"
                },
                "lat": 21.99369,
                "lng": -99.012372,
                "name": "Mmc Cd Valles",
                "platinum": false,
                "state_id": 24
            }
        ],
        "id": 61,
        "name": "Cd. Valles",
        "state_id": 24
    },
    {
        "cinemas": [
            {
                "area_id": 62,
                "id": 175,
                "info": {
                    "address": "Av. Salvador Nava 3125, 78294 San Luis, San Luis Potos\u00ed, M\u00e9xico",
                    "phone": "01800-7108888"
                },
                "lat": 22.141388888889,
                "lng": -101.011461,
                "name": "Cinemex Citadella",
                "platinum": false,
                "state_id": 24
            },
            {
                "area_id": 62,
                "id": 176,
                "info": {
                    "address": "Av. Salvador Nava 3125, 78294 San Luis, San Luis Potos\u00ed, M\u00e9xico",
                    "phone": "01800-7108888"
                },
                "lat": 22.141388888889,
                "lng": -101.011461,
                "name": "Cinemex Citadella Platino",
                "platinum": true,
                "state_id": 24
            },
            {
                "area_id": 62,
                "id": 177,
                "info": {
                    "address": "RUTILO TORRES SN COLONIA EL PASEO SAN LUIS POTOSI SAN LUIS ",
                    "phone": "01800-7108888"
                },
                "lat": 22.141044444444,
                "lng": -100.95383888889,
                "name": "Cinemex El Paseo",
                "platinum": false,
                "state_id": 24
            }
        ],
        "id": 62,
        "name": "San Luis Potos\u00ed",
        "state_id": 24
    },
    {
        "cinemas": [
            {
                "area_id": 63,
                "id": 178,
                "info": {
                    "address": "BOULEVARD JOSE DIEGO VALADEZ DESARROLLO URBANO CULIACAN SINA",
                    "phone": "01800-7108888"
                },
                "lat": 24.814922222222,
                "lng": -107.40156388889,
                "name": "Cinemex Forum Culiac\u00e1n",
                "platinum": false,
                "state_id": 25
            },
            {
                "area_id": 63,
                "id": 179,
                "info": {
                    "address": "Boulevard Diego Valadez #1567, Col. TRES RIOS, C.P. 8000, CULIACAN, SINALOA",
                    "phone": "7522127 y 7522128"
                },
                "lat": 24.814922222222,
                "lng": -107.40156388889,
                "name": "Cinemex Forum Culiac\u00e1n Platino",
                "platinum": true,
                "state_id": 25
            },
            {
                "area_id": 63,
                "id": 180,
                "info": {
                    "address": "AVENIDA EMILIANO ZAPATA COLONIA EL VALLADO CULIACAN SINALOA",
                    "phone": "01800-7108888"
                },
                "lat": 24.789852777778,
                "lng": -107.42413055556,
                "name": "Cinemex Plaza Culiac\u00e1n",
                "platinum": false,
                "state_id": 25
            }
        ],
        "id": 63,
        "name": "Culiac\u00e1n",
        "state_id": 25
    },
    {
        "cinemas": [
            {
                "area_id": 64,
                "id": 181,
                "info": {
                    "address": "BOULEVARD ROSALES COLONIA MORELOS GUAMUCHIL SINALOA",
                    "phone": "01800-7108888"
                },
                "lat": 25.453794444444,
                "lng": -108.07375555556,
                "name": "Mmc Guamuchil",
                "platinum": false,
                "state_id": 25
            }
        ],
        "id": 64,
        "name": "Guamuchil",
        "state_id": 25
    },
    {
        "cinemas": [
            {
                "area_id": 65,
                "id": 182,
                "info": {
                    "address": "IGNACIO RAMIREZ Y BOULEVARD CENTRAL S/N GUASAVE SINALOA",
                    "phone": "01800-7108888"
                },
                "lat": 25.566608333333,
                "lng": -108.46899444444,
                "name": "Mmc Guasave",
                "platinum": false,
                "state_id": 25
            }
        ],
        "id": 65,
        "name": "Guasave",
        "state_id": 25
    },
    {
        "cinemas": [
            {
                "area_id": 66,
                "id": 183,
                "info": {
                    "address": "Boulevard Jiquilpan, Colonia Jardines de F\u00e1tima, Los Mochis Sinaloa",
                    "phone": "01-800-710-88-88"
                },
                "lat": 25.807116,
                "lng": -108.993645,
                "name": "Cinemex Paseo Los Mochis",
                "platinum": false,
                "state_id": 25
            },
            {
                "area_id": 66,
                "id": 184,
                "info": {
                    "address": "Boulevard Centenario No. 805 Poniente, Colonia Centro, Los Mochis Sinaloa",
                    "phone": "01-800-710-88-88"
                },
                "lat": 25.807116,
                "lng": -108.993645,
                "name": "Mmc Los Mochis",
                "platinum": false,
                "state_id": 25
            }
        ],
        "id": 66,
        "name": "Los Mochis",
        "state_id": 25
    },
    {
        "cinemas": [
            {
                "area_id": 67,
                "id": 185,
                "info": {
                    "address": "AVENIDA RAFAEL BUELNA FRACC EL TOREO MAZATLAN SINALOA",
                    "phone": "01800-7108888"
                },
                "lat": 23.247397222222,
                "lng": -106.43741111111,
                "name": "Cinemex El Toreo",
                "platinum": false,
                "state_id": 25
            },
            {
                "area_id": 67,
                "id": 186,
                "info": {
                    "address": "Av. La Marina Mazatl\u00e1n, Sinaloa, M\u00e9xico",
                    "phone": "01800-7108888"
                },
                "lat": 23.277777777778,
                "lng": -106.448686,
                "name": "Cinemex Galer\u00edas Mazatl\u00e1n",
                "platinum": false,
                "state_id": 25
            },
            {
                "area_id": 67,
                "id": 187,
                "info": {
                    "address": "AVENIDA INSURGENTES COLONIA VILLA DEL ESTERO MAZATLAN SINALO",
                    "phone": "01800-7108888"
                },
                "lat": 23.237183333333,
                "lng": -106.41959166667,
                "name": "Cinemex Mazatl\u00e1n",
                "platinum": false,
                "state_id": 25
            },
            {
                "area_id": 67,
                "id": 227,
                "info": {
                    "address": "Av. La Marina Mazatl\u00e1n, Sinaloa, M\u00e9xico",
                    "phone": "01800-7108888"
                },
                "lat": 23.277777777778,
                "lng": -106.448686,
                "name": "Galer\u00edas Mazatl\u00e1n Platino",
                "platinum": true,
                "state_id": 25
            }
        ],
        "id": 67,
        "name": "Mazatl\u00e1n",
        "state_id": 25
    },
    {
        "cinemas": [
            {
                "area_id": 68,
                "id": 188,
                "info": {
                    "address": "GUERRERO No. 1051 PONIENTE COLONIA COMURIPA CD OBREGON SONOR",
                    "phone": "01800-7108888"
                },
                "lat": 27.492688888889,
                "lng": -109.95221111111,
                "name": "Cinemex Plaza Goya",
                "platinum": false,
                "state_id": 26
            },
            {
                "area_id": 68,
                "id": 189,
                "info": {
                    "address": "Guerrero #1051 pte, Col. Cumuripa, C.P. 85120, Obreg\u00f3n, Sonora",
                    "phone": "415 59 01- 02- 03"
                },
                "lat": 27.492688888889,
                "lng": -109.95221111111,
                "name": "Cinemex Plaza Goya Platino",
                "platinum": true,
                "state_id": 26
            }
        ],
        "id": 68,
        "name": "Cd. Obreg\u00f3n",
        "state_id": 26
    },
    {
        "cinemas": [
            {
                "area_id": 69,
                "id": 190,
                "info": {
                    "address": "BOULEVARD LUIS ENCINAS Y CALZADA GARCIA LOPEZ S/N COLONIA LA",
                    "phone": "01800-7108888"
                },
                "lat": 27.929227777778,
                "lng": -110.92555277778,
                "name": "Cinemex Guaymas",
                "platinum": false,
                "state_id": 26
            }
        ],
        "id": 69,
        "name": "Guaymas",
        "state_id": 26
    },
    {
        "cinemas": [
            {
                "area_id": 70,
                "id": 191,
                "info": {
                    "address": "BOULEVARD JOSE GARCIA MORALES No. 2 COLONIA EL LLANO HERMOSI",
                    "phone": "01800-7108888"
                },
                "lat": 29.092122222222,
                "lng": -110.99355277778,
                "name": "Cinemex Encinas",
                "platinum": false,
                "state_id": 26
            }
        ],
        "id": 70,
        "name": "Hermosillo",
        "state_id": 26
    },
    {
        "cinemas": [
            {
                "area_id": 71,
                "id": 192,
                "info": {
                    "address": {},
                    "phone": {}
                },
                "lat": 0,
                "lng": 0,
                "name": "Apruabas",
                "platinum": false,
                "state_id": 26
            },
            {
                "area_id": 71,
                "id": 193,
                "info": {
                    "address": "Antigua Planta de Fuerza,Calle Himalaya C.P. 804340, Nacozari de Garcia Sonora ",
                    "phone": "01800-7108888"
                },
                "lat": 30.378503,
                "lng": -109.683766,
                "name": "Cinemex Nacozari",
                "platinum": false,
                "state_id": 26
            }
        ],
        "id": 71,
        "name": "Nacozari De Garc\u00cda",
        "state_id": 26
    },
    {
        "cinemas": [
            {
                "area_id": 72,
                "id": 194,
                "info": {
                    "address": "IGNACIO PESQUERIA No. 807 NORTE COLONIA REFORMA NAVOJOA SONO",
                    "phone": "01800-7108888"
                },
                "lat": 27.083019444444,
                "lng": -109.44536944444,
                "name": "Cinemex Navojoa",
                "platinum": false,
                "state_id": 26
            }
        ],
        "id": 72,
        "name": "Navojoa",
        "state_id": 26
    },
    {
        "cinemas": [
            {
                "area_id": 73,
                "id": 195,
                "info": {
                    "address": "PERIF CARLOS MOLINA RANCHERIA PASO PLAYA CARDENAS TABASCO",
                    "phone": "01800-7108888"
                },
                "lat": 17.999752777778,
                "lng": -93.375,
                "name": "Mmc C\u00e1rdenas",
                "platinum": false,
                "state_id": 27
            }
        ],
        "id": 73,
        "name": "C\u00e1rdenas",
        "state_id": 27
    },
    {
        "cinemas": [
            {
                "area_id": 74,
                "id": 196,
                "info": {
                    "address": "PERIFERICO CARLOS PELLICER, #129 LOCAL CINEMEX, COL. 1 ERO DE MAYO, C.P. 86170, VILLAHERMOSA, TABASCO.",
                    "phone": {}
                },
                "lat": 0,
                "lng": 0,
                "name": "Cinemex Altabrisa",
                "platinum": false,
                "state_id": 27
            },
            {
                "area_id": 74,
                "id": 197,
                "info": {
                    "address": "PERIFERICO CARLOS PELLICER, #129 LOCAL CINEMEX, CO",
                    "phone": {}
                },
                "lat": 0,
                "lng": 0,
                "name": "Cinemex Altabrisa Platino",
                "platinum": true,
                "state_id": 27
            },
            {
                "area_id": 74,
                "id": 198,
                "info": {
                    "address": "PERIFERICA CARLOS PELLICER CAMARA COL GUAYABAL VILLAHERMOSA ",
                    "phone": "01800-7108888"
                },
                "lat": 17.972422222222,
                "lng": -92.921605555556,
                "name": "Cinemex Villahermosa",
                "platinum": false,
                "state_id": 27
            }
        ],
        "id": 74,
        "name": "Villa Hermosa",
        "state_id": 27
    },
    {
        "cinemas": [
            {
                "area_id": 75,
                "id": 199,
                "info": {
                    "address": "VICENTE GUERRERO No. 900 ORIENTE COLONIA VILLA JUAREZ CD MAN",
                    "phone": "01800-7108888"
                },
                "lat": 22.742742,
                "lng": -98.961797,
                "name": "Cinemex Cd Mante",
                "platinum": false,
                "state_id": 28
            }
        ],
        "id": 75,
        "name": "Cd. Mante",
        "state_id": 28
    },
    {
        "cinemas": [
            {
                "area_id": 76,
                "id": 200,
                "info": {
                    "address": "AVENIDA JUAN B. TIJERINA No. 2033 COLONIA LAS PALMAS CD VICT",
                    "phone": "01800-7108888"
                },
                "lat": 23.749375,
                "lng": -99.140477777778,
                "name": "Mmc Cd Victoria",
                "platinum": false,
                "state_id": 28
            }
        ],
        "id": 76,
        "name": "Cd. Victoria",
        "state_id": 28
    },
    {
        "cinemas": [
            {
                "area_id": 77,
                "id": 201,
                "info": {
                    "address": "AVENIDA LAURO VILLAR COLONIA ARBOLEDAS MATAMOROS TAMAULIPAS",
                    "phone": "01800-7108888"
                },
                "lat": 25.863547222222,
                "lng": -97.476863888889,
                "name": "Cinemex Matamoros",
                "platinum": false,
                "state_id": 28
            }
        ],
        "id": 77,
        "name": "Matamoros",
        "state_id": 28
    },
    {
        "cinemas": [
            {
                "area_id": 78,
                "id": 202,
                "info": {
                    "address": "AVENIDA REFORMA ESQUINA ANAHUAC COLONIA MEXICO NUEVO LAREDO ",
                    "phone": "01800-7108888"
                },
                "lat": 27.461063,
                "lng": -99.51004,
                "name": "Cinemex Plaza Real Nvo Laredo",
                "platinum": false,
                "state_id": 28
            },
            {
                "area_id": 78,
                "id": 203,
                "info": {
                    "address": "15 DE SEPTIEMBRE COL CAMPESTRE NUEVO LAREDO TAMAULIPAS",
                    "phone": "01800-7108888"
                },
                "lat": 27.459861111111,
                "lng": -99.5111,
                "name": "Mmc Dos Laredos",
                "platinum": false,
                "state_id": 28
            }
        ],
        "id": 78,
        "name": "Nuevo Laredo",
        "state_id": 28
    },
    {
        "cinemas": [
            {
                "area_id": 79,
                "id": 204,
                "info": {
                    "address": "BOULEVARD HIDALGO COLONIA FRACCIONAMIENTO LAS FUENTES REYNOS",
                    "phone": "01800-7108888"
                },
                "lat": 26.073363888889,
                "lng": -98.318775,
                "name": "Cinemex Plaza Real Reynosa",
                "platinum": false,
                "state_id": 28
            },
            {
                "area_id": 79,
                "id": 205,
                "info": {
                    "address": "AVENIDA PORTES GIL COLONIA ZONA DORADA REYNOSA TAMAULIPAS",
                    "phone": "01800-7108888"
                },
                "lat": 26.910555555556,
                "lng": -98.271422222222,
                "name": "Mmc Zona Dorada",
                "platinum": false,
                "state_id": 28
            }
        ],
        "id": 79,
        "name": "Reynosa",
        "state_id": 28
    },
    {
        "cinemas": [
            {
                "area_id": 80,
                "id": 206,
                "info": {
                    "address": "Cinemex Plaza Bella Rio Bravo,Francisco I.Madero Col la Paz, Esquina Ursula Galvan.Rio Bravo Tamaulipas",
                    "phone": "01800-7108888"
                },
                "lat": 25.987964,
                "lng": -98.10997,
                "name": "Cinemex PB R\u00edo Bravo",
                "platinum": false,
                "state_id": 28
            }
        ],
        "id": 80,
        "name": "R\u00edo Bravo",
        "state_id": 28
    },
    {
        "cinemas": [
            {
                "area_id": 81,
                "id": 207,
                "info": {
                    "address": "DIAGONAL NORTE SUR COLONIA FRACCIONAMIENTO TAMPICO TAMPICO T",
                    "phone": "01800-7108888"
                },
                "lat": 22.253944444444,
                "lng": -97.861516666667,
                "name": "Cinemex Tampico",
                "platinum": false,
                "state_id": 28
            }
        ],
        "id": 81,
        "name": "Tampico",
        "state_id": 28
    },
    {
        "cinemas": [
            {
                "area_id": 82,
                "id": 208,
                "info": {
                    "address": "AVENIDA RUIZ CORTINES FRACC SUTSEM VERACRUZ VERACRUZ",
                    "phone": "01800-7108888"
                },
                "lat": 19.163229,
                "lng": -96.10739,
                "name": "Cinemex Boca del R\u00edo",
                "platinum": false,
                "state_id": 29
            }
        ],
        "id": 82,
        "name": "Boca del R\u00edo",
        "state_id": 29
    },
    {
        "cinemas": [
            {
                "area_id": 83,
                "id": 209,
                "info": {
                    "address": "AVENIDA PALMAS COL PARAISO COATZACOALCOS VERACRUZ",
                    "phone": "01800-7108888"
                },
                "lat": 18.139586111111,
                "lng": -94.466338888889,
                "name": "Cinemex El Palmar",
                "platinum": false,
                "state_id": 29
            },
            {
                "area_id": 83,
                "id": 210,
                "info": {
                    "address": "Av. Universidad km 8 Antigua carretera Coatza-Mina, Col. El Tesoro, C.P. 96536, Coatzacoalcos, Veracruz",
                    "phone": "2109251 y 2109252"
                },
                "lat": 18.143197222222,
                "lng": -94.48795,
                "name": "Cinemex Forum Coatza Platino",
                "platinum": true,
                "state_id": 29
            },
            {
                "area_id": 83,
                "id": 211,
                "info": {
                    "address": "Av. Universidad km 8 Antigua carretera Coatza-Mina, Col. El Tesoro, C.P. 96536, Coatzacoalcos, Veracruz",
                    "phone": "2109251 y 2109252"
                },
                "lat": 18.143197222222,
                "lng": -94.48795,
                "name": "Cinemex Forum Coatzacoalcos",
                "platinum": false,
                "state_id": 29
            }
        ],
        "id": 83,
        "name": "Coatzacoalcos",
        "state_id": 29
    },
    {
        "cinemas": [
            {
                "area_id": 84,
                "id": 212,
                "info": {
                    "address": "CARRETERA POZA RICA CAZONES COLONA LA RUEDA POZA RICA VERACR",
                    "phone": "01800-7108888"
                },
                "lat": 20.569225,
                "lng": -97.435661111111,
                "name": "Cinemex Patio Poza Rica",
                "platinum": false,
                "state_id": 29
            },
            {
                "area_id": 84,
                "id": 213,
                "info": {
                    "address": "AVENIDA PUEBLA COLONIA PALMA SOLA POZA RICA VERACRUZ",
                    "phone": "01800-7108888"
                },
                "lat": 20.544205555556,
                "lng": -97.465905555556,
                "name": "Cinemex Poza Rica",
                "platinum": false,
                "state_id": 29
            }
        ],
        "id": 84,
        "name": "Poza Rica",
        "state_id": 29
    },
    {
        "cinemas": [
            {
                "area_id": 85,
                "id": 214,
                "info": {
                    "address": "AV MIGUEL ANGEL DE QUEVEDO COL CRISTOBAL COLON VERACRUZ VERA",
                    "phone": "01800-7108888"
                },
                "lat": 19.196225,
                "lng": -96.153322222222,
                "name": "Cinemex Las Palmas Veracruz",
                "platinum": false,
                "state_id": 29
            },
            {
                "area_id": 85,
                "id": 215,
                "info": {
                    "address": "AVENIDA RAFAEL CUERVO COL PLAYA LINDA VERACRUZ VERACRUZ",
                    "phone": "01800-7108888"
                },
                "lat": 19.215133333333,
                "lng": -96.174263888889,
                "name": "Cinemex Los Pinos",
                "platinum": false,
                "state_id": 29
            }
        ],
        "id": 85,
        "name": "Veracruz",
        "state_id": 29
    },
    {
        "cinemas": [
            {
                "area_id": 86,
                "id": 216,
                "info": {
                    "address": "Avenida Canek Calle 59 A   x 128 #277, Fraccionamiento Yucalpeten, Plaza Canek, CP 97248, Merida ",
                    "phone": {}
                },
                "lat": 20.990291,
                "lng": -89.661655,
                "name": "Cinemex Canek",
                "platinum": false,
                "state_id": 30
            },
            {
                "area_id": 86,
                "id": 217,
                "info": {
                    "address": "CALLE SESENTA MERIDA PROGRESO COL REVOLUCION MERIDA YUCATAN",
                    "phone": "01800-7108888"
                },
                "lat": 21.0332,
                "lng": -89.6291,
                "name": "Cinemex Galer\u00edas M\u00e9rida",
                "platinum": true,
                "state_id": 30
            },
            {
                "area_id": 86,
                "id": 218,
                "info": {
                    "address": "CALLE SETENTA Y CINCO COL MONTES DE AME MERIDA YUCATAN",
                    "phone": "01800-7108888"
                },
                "lat": 21.029555555556,
                "lng": -89.624061111111,
                "name": "Cinemex Gran Plaza M\u00e9rida",
                "platinum": false,
                "state_id": 30
            },
            {
                "area_id": 86,
                "id": 219,
                "info": {
                    "address": "CHICHI SUAREZ COL FRACC ITZIMNA MERIDA YUCATAN",
                    "phone": "01800-7108888"
                },
                "lat": 20.998104,
                "lng": -89.572263,
                "name": "Cinemex Macroplaza M\u00e9rida",
                "platinum": false,
                "state_id": 30
            },
            {
                "area_id": 86,
                "id": 220,
                "info": {
                    "address": "CALLE CINCUENTA Y SIETE COL CENTRO MERIDA YUCATAN",
                    "phone": "01800-7108888"
                },
                "lat": 20.970341666667,
                "lng": -89.6295,
                "name": "Mmc Rex Merida",
                "platinum": false,
                "state_id": 30
            }
        ],
        "id": 86,
        "name": "M\u00e9rida",
        "state_id": 30
    },
    {
        "cinemas": [
            {
                "area_id": 87,
                "id": 221,
                "info": {
                    "address": "CALLE 42,COLONIA SANTA LUCIA.CP 97780 VALLADOLID.YUCATAN.",
                    "phone": "01800-7108888"
                },
                "lat": 20.702069,
                "lng": -88.202169,
                "name": "Cinemex Valladolid",
                "platinum": false,
                "state_id": 30
            }
        ],
        "id": 87,
        "name": "Valladolid",
        "state_id": 30
    },
    {
        "cinemas": [
            {
                "area_id": 88,
                "id": 222,
                "info": {
                    "address": "GARCIA SALINAS No. 510 COLONIA CENTRO FRESNILLO ZACATECAS",
                    "phone": "01800-7108888"
                },
                "lat": 23.170363888889,
                "lng": -102.85785833333,
                "name": "Cinemex Fresnillo",
                "platinum": false,
                "state_id": 31
            }
        ],
        "id": 88,
        "name": "Fresnillo",
        "state_id": 31
    },
    {
        "cinemas": [
            {
                "area_id": 89,
                "id": 223,
                "info": {
                    "address": "AVENIDA FRANCISCO GARCIA SALINAS Y SEVILLA FRACCIONAMIENTO T",
                    "phone": "01800-7108888"
                },
                "lat": 22.758158333333,
                "lng": -102.54729722222,
                "name": "Cinemex Zacatecas",
                "platinum": false,
                "state_id": 31
            }
        ],
        "id": 89,
        "name": "Zacatecas",
        "state_id": 31
    }
]
